city,country,id,latitude,longitude,name,state,zip
Kittery,US,ME118,43.0899,-70.7415,Kittery Animal Hospital and Creature Comforts LLC,ME,3904
Rye,US,NH81,42.9885,-70.8282,Lilac Groves Pampered Pups,NH,3870
Rye,US,NH140,42.9885,-70.8282,Northern New England Westie Rescue Inc,NH,3870
Stratham,US,NH31,43.0028,-70.9212,NHSPCA,NH,3885
York,US,ME158,43.1502,-70.6281,The Grateful Dog Animal Rescue,ME,3909
Newfields,US,NH105,43.0377,-70.9861,Cats 1st,NH,3856
Dover,US,NH54,43.1921,-70.8801,Cocheco Valley Humane Society,NH,3820
Brentwood,US,NH96,42.9783,-70.9666,4 Lil Paws Ferret Shelter,NH,3833
Seabrook,US,NH48,42.9002,-70.8839,All Breed Rescue and Adoption Inc.,NH,3874
Salisbury,US,MA65,42.8376,-70.8733,Merrimack River Feline Rescue Society,MA,1952
North Berwick,US,ME151,43.3043,-70.7353,Emma's Angels Rescue,ME,3906
Gonic,US,NH154,43.2759,-70.9891,"FuRRR Feline Rescue, Rehabilitation and Retirement",NH,3839
Merrimac,US,MA525,42.8335,-71.005,Safe Tails Animal Rescue,MA,1860
Wells,US,ME69,43.311,-70.5749,Safe Haven Humane Society,ME,4090
West Newbury,US,MA465,42.793,-70.9765,New England Equine Rescue North,MA,1985
Sandown,US,NH147,42.9389,-71.1662,PRONE - Papillon Rescue of the North East,NH,3873
Haverhill,US,MA265,42.7843,-71.0734,"One Tail at a Time Rescue, Inc.",MA,1830
Atkinson,US,NH75,42.8429,-71.1634,Cairn Rescue League,NH,3811
Lebanon,US,ME97,43.4104,-70.8751,Alpha Dog Rescue,ME,4027
Northwood,US,NH138,43.218,-71.2465,Mary's Dogs,NH,3261
Kennebunkport,US,ME89,43.3592,-70.4753,Lucky Pup Rescue,ME,4046
Ipswich,US,MA135,42.6829,-70.8423,Ipswich Humane Group Inc.,MA,1938
Farmington,US,NH112,43.3917,-71.0658,Voice for Animals,NH,3835
East Derry,US,NH10,42.8944,-71.2917,Greater Derry Humane Society Inc.,NH,3041
Salem,US,NH32,42.7904,-71.2182,Feline Friends,NH,3079
Salem,US,NH71,42.7904,-71.2182,Salem Animal Rescue League,NH,3079
Methuen,US,MA147,42.7272,-71.1763,MSPCA at Nevins Farm,MA,1844
Methuen,US,MA90,42.7272,-71.1763,Odd Dog Rescue,MA,1844
Gloucester,US,MA128,42.6258,-70.6665,Cape Ann Animal Aid,MA,1930
Milton Mills,US,NH50,43.5014,-70.9638,Greyhound Pets of America - Central NH Chapter,NH,3852
Andover,US,MA224,42.6487,-71.1558,Great Dog Rescue New England,MA,1810
Chichester,US,NH65,43.257332,-71.401446,Live and Let Live Farm,NH,3258
Chichester,US,NH149,43.257332,-71.401446,"Homes for Happy Dogs, Inc.",NH,3258
Manchester,US,NH67,42.9956,-71.4553,Animal Allies,NH,3105
Hathorne,US,MA477,42.5831,-70.9858,"North East Afghan Hound Rescue, Inc",MA,1937
Manchester,US,NH142,42.9667,-71.4502,All Better Pets,NH,3103
Manchester,US,NH160,42.9667,-71.4502,Darbster Foundation,NH,3103
Beverly,US,MA376,42.5611,-70.877,Friends of Beverly Animals,MA,1915
Beverly,US,MA459,42.5611,-70.877,Lucky Mutt Animal Rescue,MA,1915
Saco,US,ME136,43.5004,-70.4433,Hope Harbor Animal Society,ME,4072
Pelham,US,NH95,42.7365,-71.3243,Animal Rescue Network of New England,NH,3076
Manchester,US,NH25,42.9876,-71.4866,Friends of the Manchester Animal Shelter,NH,3102
Manchester,US,NH139,42.9876,-71.4866,For Dog's Sake,NH,3102
Peabody,US,MA41,42.5322,-70.9633,Animal Umbrella Inc.,MA,1960
Salem,US,MA171,42.5172,-70.8999,Northeast Animal Shelter,MA,1970
Salem,US,MA199,42.5172,-70.8999,PALS Animal Life Savers,MA,1970
Salem,US,MA511,42.5172,-70.8999,The Odd Cat Sanctuary,MA,1970
Bedford,US,NH03,42.9401,-71.5235,Animal Rescue League of New Hampshire,NH,3110
Tewksbury,US,MA423,42.6003,-71.2205,Blind Dog Rescue Alliance - MA,MA,1876
Marblehead,US,MA18,42.498,-70.8646,Friends of Marblehead's Abandoned Animals,MA,1945
Marblehead,US,MA370,42.498,-70.8646,Big Fluffy Dog Rescue,MA,1945
Concord,US,NH09,43.2153,-71.534,Pope Memorial SPCA of Concord Merrimack County,NH,3301
Lowell,US,MA106,42.6485,-71.3347,Lowell Humane Society,MA,1854
Franklin,US,MA74,42.4886,-70.964,Second Chance Boxer Rescue Inc.,MA,1904
Goffstown,US,NH155,43.0126,-71.5879,Granite State Paw Rescuers,NH,3045
Wakefield,US,MA142,42.5005,-71.0713,PAWS,MA,1880
Tyngsboro,US,MA33,42.6711,-71.415,Kitty Angels,MA,1879
Nashua,US,NH89,42.7689,-71.5135,Peis and Strays,NH,3063
North Billerica,US,MA284,42.5744,-71.289,Billerica Cat Care Coalition,MA,1862
Buxton,US,ME54,43.6643,-70.6035,Ferret Rescue of Maine,ME,4093
Limerick,US,ME125,43.6875,-70.7946,"New England Lab Rescue, Inc.",ME,4048
Scarborough,US,ME106,43.6066,-70.3491,Tender Touch Rescue,ME,4074
Melrose,US,MA393,42.4567,-71.0629,Melrose Humane Society,MA,2176
Woburn,US,MA343,42.4804,-71.1514,Woburn Feral Cat Coalition,MA,1888
Woburn,US,MA40,42.4804,-71.1514,House Rabbit Network,MA,1888
Nahant,US,MA447,42.4262,-70.9264,"German Shepherd Resource and Rescue Center, Inc.",MA,1908
Canterbury,US,NH33,43.3421,-71.5815,Libby's Haven for Senior Canines,NH,3224
Gilford,US,NH111,43.5475,-71.4072,Bare Paws Rescue,NH,3247
Ossipee,US,NH14,43.686,-71.1169,Lakes Region Humane Society,NH,3864
Westford,US,MA01,42.5831,-71.4399,North East Rottweiler Rescue,MA,1886
Westford,US,MA320,42.5831,-71.4399,"Forgotten Angels Shelter, Inc.",MA,1886
Westford,US,MA377,42.5831,-71.4399,Furry Tails Cat Shelter,MA,1886
Concord,US,NH39,42.8312,-71.6561,Siamese Cat Rescue Center,NH,3055
Milford,US,NH99,42.8312,-71.6561,"Sato Heart Rescue, Wilton,NH",NH,3055
Gorham,US,ME127,43.6918,-70.4442,The Pixel Fund,ME,4038
Medford,US,MA373,42.4189,-71.1096,Kitty Connection Inc,MA,2155
New Boston,US,NH119,42.9771,-71.7097,Canine Commitment NH,NH,3070
South Portland,US,ME137,43.6326,-70.2713,Helping Paws,ME,4106
South Portland,US,ME159,43.6326,-70.2713,Pittie Posse Rescue and Sanctuary,ME,4106
Westbrook,US,ME130,43.6769,-70.3717,Fetching Hope Rescue,ME,4098
Lexington,US,MA424,42.4457,-71.2314,Northeast Coonhound Rescue,MA,2420
Westbrook,US,ME107,43.6819,-70.3574,Yankee Chihuahua Rescue and Adopt,ME,4092
Westbrook,US,ME19,43.6819,-70.3574,"IMPS - Internet Miniature Pinscher Service, Inc.",ME,4092
Arlington,US,MA293,42.4186,-71.1643,"Whiskers of Hope, Inc.",MA,2474
Winthrop,US,MA292,42.3746,-70.9825,MassPAWS,MA,2152
Hopkinton,US,NH157,43.2143,-71.7175,Kast Hill Farm,NH,3229
Portland,US,ME80,43.6615,-70.294,Maine Sheltie Rescue,ME,4102
Somerville,US,MA09,42.3893,-71.0915,Happy Tails Pet Rescue,MA,2145
Somerville,US,MA378,42.3893,-71.0915,Black Cat Rescue,MA,2145
Weare,US,NH42,43.0452,-71.7475,WAG - We Are Animal Guardians,NH,3281
Portland,US,ME139,43.6614,-70.2558,Friends of Willow,ME,4104
Boston,US,MA484,42.3664,-71.0557,Last Hope K9 Rescue,MA,2113
Portland,US,ME114,43.689,-70.2852,Thistle Hill,ME,4103
Portland,US,ME126,43.689,-70.2852,Buddy Up Animal Society,ME,4103
Portland,US,ME146,43.689,-70.2852,The Green Ark,ME,4103
Franklin,US,NH52,43.4419,-71.6418,Franklin Animal Shelter,NH,3235
Boston,US,MA13,42.3492,-71.0739,Animal Rescue League of Boston,MA,2116
Waltham,US,MA190,42.3878,-71.2422,The Cat Connection,MA,2453
Boston,US,MA44,42.3507,-71.1539,Ellen M. Gifford Sheltering Home,MA,2135
Boxborough,US,MA501,42.4861,-71.5125,"Cavalier Alliance for Rescue, Research, and Education, Inc.",MA,1719
Boston,US,MA38,42.3111,-71.1124,MSPCA Boston Animal Care and Adoption Center,MA,2130
Jamaica Plain,US,MA77,42.3111,-71.1124,Second Chance Shelter for Cats,MA,2130
Falmouth,US,ME77,43.7523,-70.2772,Paws and Claws New England,ME,4105
Falmouth,US,ME87,43.7523,-70.2772,Mainely Rat Rescue,ME,4105
Hillsboro,US,NH74,43.0839,-71.8609,For The Love of Dog,NH,3244
Hull,US,MA137,42.2645,-70.8621,Hull Seaside Animal Rescue,MA,2045
Hull,US,MA487,42.2645,-70.8621,Survivor Tails Animal Rescue,MA,2045
Greenfield,US,NH01,42.9503,-71.8764,Cocker Spaniel Rescue of New England,NH,3047
Boston,US,MA94,42.2844,-71.1293,City of Boston Animal Shelter,MA,2131
Roslindale,US,MA506,42.2844,-71.1293,Boston's Forgotten Felines,MA,2131
Quincy,US,MA161,42.2507,-71.0018,Eskies Online American Eskimo Dog Rescue,MA,2169
Quincy,US,MA54,42.2507,-71.0018,Quincy Animal Shelter,MA,2169
Sudbury,US,MA04,42.3835,-71.4286,Save A Dog,MA,1776
Wayland,US,MA385,42.3455,-71.3599,"Guardian Angels Cat Rescue, Inc.",MA,1778
Wayland,US,MA45,42.3455,-71.3599,"German Shepherd Rescue of New England, Inc.",MA,1778
Wellesley,US,MA14,42.308,-71.2854,Stray Pets In Need of MA inc. (SPIN),MA,2181
Lunenburg,US,MA11,42.585,-71.7292,The Pat Brody Shelter for Cats,MA,1462
Cumberland,US,ME26,43.8104,-70.2567,Homeless Animal Rescue Team (HART),ME,4021
Scituate,US,MA85,42.2046,-70.7513,Scituate Animal Shelter,MA,2066
Dedham,US,MA432,42.2438,-71.1654,Shultz's Guest House,MA,2026
Braintree,US,MA275,42.21,-70.99,Massachusetts Humane Society Inc.,MA,2185
Braintree,US,MA317,42.21,-70.99,South Shore Humane Society,MA,2185
Braintree,US,MA390,42.2102,-70.9999,"Rescue Angels, Inc.",MA,2184
Yarmouth,US,ME152,43.8116,-70.2012,Old Dogs New Digs,ME,4096
Natick,US,MA219,42.2906,-71.353,"All Dog Rescue, Inc.",MA,1760
Hudson,US,MA208,42.3911,-71.5588,CaRMaH (Cat Rescue of Marlborough and Hudson),MA,1749
Framingham,US,MA272,42.3025,-71.4236,PittieLove Rescue Inc.,MA,1701
Randolph,US,MA138,42.1732,-71.0494,Hilltop Humane Society,MA,2368
Randolph,US,MA513,42.1732,-71.0494,Paws4Survival Rescue Inc.,MA,2368
Framingham,US,MA494,42.28,-71.4164,Wildheart Canine Rescue,MA,1702
Norwood,US,MA104,42.1867,-71.2027,Neponset Valley Humane Society,MA,2062
Holbrook,US,MA458,42.1472,-71.0112,Bessy's Place Cat Sanctuary & Cat Adoption,MA,2343
Canton,US,MA454,42.1658,-71.1344,"CAT CANTON RESCUE, Inc.",MA,2021
Freeport,US,ME53,43.8512,-70.1207,Tall Tails Beagle Rescue,ME,4032
Freeport,US,ME78,43.8512,-70.1207,Journey Home Dog Rescue,ME,4032
Marshfield,US,MA358,42.107,-70.6953,"IMPS - Internet Miniature Pinscher Service, Inc. - New England region",MA,2050
Avon,US,MA495,42.1245,-71.0452,Marty's Cat Rescue,MA,2322
Medfield,US,MA368,42.1816,-71.3036,Forever Home Rescue New England,MA,2052
Medfield,US,MA57,42.1816,-71.3036,A Medfield Animal Shelter,MA,2052
Jaffrey,US,NH68,42.8312,-72.0674,Monadnock Kitty Rescue and Adoption,NH,3452
Sterling,US,MA131,42.414,-71.7925,Animal Shelter Inc.,MA,1564
Sterling,US,MA86,42.414,-71.7925,NEADY Cats Inc.,MA,1564
Brockton,US,MA409,42.0811,-71.0255,Animal Protection Center of Southeastern MA,MA,2301
Brockton,US,MA464,42.0811,-71.0255,Cat Lovers Rescue,MA,2302
Hopkinton,US,MA141,42.226,-71.5195,Baypath Humane Society of Hopkinton Inc.,MA,1748
Hopkinton,US,MA515,42.226,-71.5195,Brown Dog Coalition and Rescue Ltd,MA,1748
Hanson,US,MA379,42.0605,-70.863,Caribbean Connection Puppy Rescue,MA,2341
Pembroke,US,MA185,42.0552,-70.8094,Town of Pembroke Animal Control,MA,2359
Fryeburg,US,ME39,44.0544,-70.9417,Harvest Hills Animal Shelter,ME,4037
Stow,US,ME88,44.0544,-70.9417,The Long Journey to a New Begining Animal Rescue,ME,4037
Gardner,US,MA475,42.5668,-71.9839,Gardner Animal Control Facility,MA,1440
Duxbury,US,MA26,42.0473,-70.7177,Duxbury Animal Control & Shelter,MA,2332
Duxbury,US,MA71,42.0417,-70.6728,Standish Humane Society,MA,2331
Princeton,US,MA124,42.359,-71.7915,NEADS,MA,1583
Albany,US,NH156,43.9737,-71.3956,Connect A Pet New England,NH,3818
Brunswick,US,ME119,43.8973,-69.9718,"Puppy Love, Inc.",ME,4011
Brunswick,US,ME30,43.8973,-69.9718,Coastal Humane Society,ME,4011
Worcester,US,MA427,42.3107,-71.7962,Broken Tail Rescue,MA,1606
Worcester,US,MA63,42.3107,-71.7962,Worcester Animal Rescue League,MA,1606
Milford,US,MA281,42.1499,-71.5263,Town of Milford Animal Control,MA,1757
Topsham,US,ME90,43.9371,-69.9656,Coastal Maine Great Dane Rescue,ME,4086
Topsham,US,ME154,43.9371,-69.9656,Community Spay-Neuter Clinic,ME,4086
Mansfield,US,MA34,42.0234,-71.219,Mansfield Animal Shelter,MA,2048
Mansfield,US,MA507,42.0234,-71.219,"The Pittie Stop Rescue, Inc.",MA,2048
Newport,US,NH159,43.3663,-72.2055,Wags and Wiggles Rescue,NH,3773
Portland,US,ME24,44.087,-70.3186,Australian Cattle Dog Rescue Association,ME,4258
Bridgewater,US,MA466,41.9799,-70.9751,"North Atlantic Westie Rescue, Inc.",MA,2324
Templeton,US,MA115,42.5209,-72.0712,Ahimsa Haven,MA,1468
Templeton,US,MA325,42.5209,-72.0712,American Bullmastiff Rescue,MA,1468
Bath,US,ME121,43.9235,-69.8342,A Paw in the Door Cat Rescue,ME,4530
Bath,US,ME150,43.9235,-69.8342,Souly Maine Pets Rescue,ME,4530
Northbridge,US,MA398,42.161,-71.6736,"Willy's Kitty Angels Rescue, Inc.",MA,1534
Northbridge,US,MA451,42.161,-71.6736,"BV Cats, Inc.",MA,1534
Bellingham,US,MA503,42.0679,-71.4791,Ruff Tales Rescue,MA,2019
Woolwich,US,ME02,43.9185,-69.8025,Second Chance Boxer Rescue - New England,ME,4579
Paxton,US,MA140,42.3049,-71.916,Sweetpea Friends of Rutland Animals,MA,1612
Keene,US,NH60,42.8689,-72.3072,Fast Friends Greyhound Adoption Center,NH,3469
Provincetown,US,MA369,42.0063,-70.2082,Carrie A. Seaman Animal Shelter dba CASAS,MA,2657
Plainville,US,MA335,41.9784,-71.3111,Angelcat Haven,MA,2762
Raynham,US,MA262,41.9236,-71.0528,"Nemasket Orphaned Animal Haven, Inc.",MA,2768
Alstead,US,NH133,43.1503,-72.3572,New Hampshire Small Dog Rescue,NH,3602
Uxbridge,US,MA486,42.0788,-71.6354,Pawfect Life Rescue,MA,1569
Uxbridge,US,MA498,42.0788,-71.6354,Whiskers & Mittens TNR,MA,1569
Uxbridge,US,MA522,42.0788,-71.6354,Fine Feline Cat Rescue,MA,1569
Winchester,US,NH161,42.8084,-72.3372,Draft Gratitude,NH,3470
Oakham,US,MA433,42.3483,-72.0453,"Bay State Equine Rescue, Inc.",MA,1068
Carver,US,MA380,41.8864,-70.7748,Friends of Carver Animals,MA,2330
Plymouth,US,MA80,41.8978,-70.5424,Plymouth Animal Shelter Adoptions,MA,2345
Taunton,US,MA72,41.9059,-71.1056,Taunton Animal Shelter,MA,2780
Claremont,US,NH83,43.3696,-72.3441,Sullivan County Humane Society,NH,3743
Claremont,US,NH114,43.3696,-72.3441,Lost my Way Animal Shelter,NH,3743
North Smithfield,US,RI105,42.0028,-71.5153,Furever Dachshund Rescue,RI,2896
Attleboro,US,MA78,41.9304,-71.3049,Friends of Attleboro Animal Shelter,MA,2703
Attleboro,US,MA98,41.9304,-71.3049,"Attleboro Friends of Cats, Inc.",MA,2703
Attleboro,US,MA520,41.9304,-71.3049,Massachusetts Feline Intervention Alliance,MA,2703
Woonsocket,US,RI43,41.9939,-71.5169,Woonsocket Cat Sanctuary,RI,2895
Charlestown,US,NH93,43.2385,-72.4242,River Valley Animal Protection League,NH,3603
Paris,US,ME44,44.2598,-70.5022,Responsible Pet Care of Oxford Hills,ME,4271
Douglas,US,MA17,42.0628,-71.7525,Dog Orphans Inc.,MA,1516
East Brookfield,US,MA30,42.2252,-72.0368,Second Chance Animal Shelter Inc.,MA,1515
Central Falls,US,RI64,41.8917,-71.3971,Friends of Central Falls Animals,RI,2863
Rehoboth,US,MA152,41.8464,-71.2393,Rehoboth Animal Shelter,MA,2769
Pawtucket,US,RI13,41.8786,-71.3831,Pawtucket Animal Shelter,RI,2862
Harrisville,US,RI113,41.9765,-71.6622,New England Humane Society,RI,2830
Oakland,US,RI40,41.9596,-71.6487,Burrillville Animal Control,RI,2858
Wilder,US,VT72,43.6728,-72.3092,Long Trail Canine Rescue,VT,5088
Springfield,US,VT21,43.3275,-72.4888,Springfield Humane Society Inc.,VT,5156
Webster,US,MA266,42.0599,-71.8741,Community Cat Connection,MA,1570
Rumford,US,RI19,41.8456,-71.352,Pawswatch Adoptable Cats,RI,2916
Seekonk,US,MA32,41.8369,-71.3246,Seekonk Animal Shelter,MA,2771
West Warwick,US,RI28,41.8609,-71.4352,West Warwick Animal Shelter,RI,2904
White River Junction,US,VT49,43.6536,-72.3568,White River Animal Rescue,VT,5001
Pascoag,US,RI49,41.9558,-71.7162,Humane Association of Northwestern Rhode Island,RI,2859
Rochester,US,MA455,41.7562,-70.8384,"It's All About the Animals, Inc.",MA,2770
Providence,US,RI76,41.8367,-71.396,"Friends of Homeless Animals, Inc.",RI,2906
Brownsville,US,VT07,43.4701,-72.4846,Lucy Mackenzie Humane Society,VT,5037
East Providence,US,RI46,41.8138,-71.3704,East Providence Animal Control Center,RI,2914
Providence,US,RI11,41.8239,-71.4133,Volunteer Services for Animals - Warwick,RI,2940
Providence,US,RI84,41.8239,-71.4133,"Almost Home Rescue, Inc.",RI,2940
Providence,US,RI03,41.8202,-71.4153,Providence Animal Rescue League,RI,2903
Chepachet,US,RI83,41.9015,-71.6802,"Jenny's Hope Rescue, Inc",RI,2814
Glocester,US,RI96,41.9015,-71.6802,Little Rhody Rescue,RI,2814
Chepachet,US,RI124,41.9015,-71.6802,The Abandoned Dogs of RI,RI,2814
Providence,US,RI130,41.8192,-71.4488,Rhode Home Rescue,RI,2909
Johnston,US,RI129,41.8302,-71.4949,Scruffy Paws Animal Rescue,RI,2919
West Warren,US,MA514,42.2125,-72.1917,Central New England Equine Rescue,MA,1092
Thompson,US,CT366,41.9671,-71.8499,New England All Breed Rescue,CT,6277
Marion,US,MA195,41.7111,-70.7561,New England Brittany Rescue Inc.,MA,2738
Providence,US,RI79,41.7905,-71.4059,Providence Animal Control,RI,2905
Cranston,US,RI108,41.7905,-71.4059,Handsome Dan's Rescue for Pit Bull Type Dogs,RI,2905
Southbridge,US,MA505,42.0748,-72.0376,Big Hair Animal Rescue Inc.,MA,1550
Swansea,US,MA359,41.7408,-71.208,"Project Spay, Inc.",MA,2777
Swansea,US,MA75,41.7408,-71.208,Town of Swansea Animal Shelter,MA,2777
Riverside,US,RI48,41.7676,-71.3648,Rhode Island SPCA,RI,2915
Riverside,US,RI72,41.7676,-71.3648,Cat Adoption Team Services,RI,2915
Reading,US,VT65,43.4903,-72.5536,Turtle Hill Farm Animal Sanctuary of VT,VT,5062
Littleton,US,NH132,44.219,-71.7753,"Second Chance Animal Rescue, Inc",NH,3561
Brimfield,US,MA468,42.1501,-72.1721,"Here Today Adopted Tomorrow Animal Sanctuary, Inc.",MA,1010
Cranston,US,RI132,41.7778,-71.4376,Tigersden Rescue,RI,2910
Fall River,US,MA12,41.7151,-71.1418,Faxon Animal Care & Adoption Center,MA,2720
Acushnet,US,MA410,41.691,-70.9066,C.A.R.E. Center for Animal Rescue & Education,MA,2743
North Haverhill,US,NH125,44.0901,-72.0235,Northeastern Reptile Welfare League,NH,3774
North Haverhill,US,NH135,44.0901,-72.0235,New Digs for Dogs Rescue,NH,3774
Warren,US,RI78,41.725,-71.2694,Warren Animal Hospital,RI,2885
Winthrop,US,ME155,44.3084,-69.973,Protectors of Animal Lives Society (PALS),ME,4364
Turners Falls,US,MA476,42.5943,-72.5579,Franklin County Sheriffs Office Regional Shelter,MA,1376
Warwick,US,RI77,41.7499,-71.408,PAWS New England,RI,2888
Dennis,US,MA448,41.7326,-70.1981,"Scargo Wags and Wiggles Rescue, Inc.",MA,2638
Cranston,US,RI56,41.7639,-71.5027,Animals Depend On People Too (A.D.O.P.T.),RI,2921
Fall River,US,MA143,41.6854,-71.1765,Forever Paws Animal Shelter,MA,2724
Brewster,US,MA59,41.7464,-70.0982,Animal Rescue League of Boston,MA,2631
Greenfield,US,MA456,42.6008,-72.5987,For the Love of a Dog,MA,1301
Greenfield,US,MA516,42.6008,-72.5987,New 2 U Dog Rescue,MA,1301
Townshend,US,VT68,43.1281,-72.7117,"Gerda's Equine Rescue, Inc.",VT,5359
Fairhaven,US,MA527,41.6407,-70.8883,Fairhaven Animal Shelter,MA,2719
Bristol,US,RI53,41.684,-71.2682,Bristol Animal Shelter,RI,2809
Dartmouth,US,MA116,41.6353,-70.9385,Humane Society & Shelter - SouthCoast,MA,2740
New Bedford,US,MA489,41.6353,-70.9385,Lighthouse Animal Shelter,MA,2740
Woodstock,US,CT354,41.9433,-71.9954,Next Stop Forever,CT,6281
Woodstock,US,CT480,41.9433,-71.9954,"P.A.W.S. - Pound Animals are Worth Saving, Inc",CT,6281
Centerville,US,MA243,41.6581,-70.3587,MSPCA Cape Cod Animal Care and Adoption Center,MA,2632
Warwick,US,RI14,41.6919,-71.3792,PawsWatch,RI,2887
Warwick,US,RI109,41.6919,-71.3792,RI Friends of Felines,RI,2887
Warwick,US,RI114,41.7032,-71.4404,Rhode Island Parrot Rescue,RI,2886
Pelham,US,MA333,42.3779,-72.5096,Pug Rescue of New England,MA,1002
Amherst,US,MA488,42.3779,-72.5096,Gemini's Pampered Greyhounds,MA,1002
Dayville,US,CT362,41.8515,-71.8663,Passion 4 Paws,CT,6241
Dayville,US,CT89,41.8515,-71.8663,Northeastern Connecticut Council of Governments,CT,6241
Augusta,US,ME149,44.3106,-69.78,Animal Rescue of Kennebec,ME,4332
Jefferson,US,NH145,44.4161,-71.4742,"NH Sled Dog Rescue, History & Education Center",NH,3583
Clayville,US,RI20,41.7649,-71.6723,Scituate Animal Shelter,RI,2815
Tiverton,US,RI60,41.6352,-71.1876,Tiverton Animal Control Pound,RI,2878
Foster,US,RI119,41.7806,-71.7236,Furry Angels Dachshund Rescue,RI,2825
Augusta,US,ME42,44.3153,-69.775,Maine Greyhound Placement Service,ME,4330
East Falmouth,US,MA232,41.6057,-70.6457,PEOPLE FOR CATS,MA,2574
West Warwick,US,RI104,41.7025,-71.5187,Northwest Animal Protection League,RI,2893
West Warwick,US,RI117,41.7025,-71.5187,Southpaws Express,RI,2893
West Warwick,US,RI123,41.7025,-71.5187,Just Doodles and Friends Rescue,RI,2893
Dartmouth,US,MA502,41.598,-70.9511,Odies Place,MA,2748
Coventry,US,RI131,41.6944,-71.5606,Second Chance Cats of Kent County ,RI,2816
Shelburne Falls,US,MA324,42.5996,-72.7048,Better Than Dead Rescue,MA,1370
Pomfret Center,US,CT560,41.863,-71.984,East Coast Canine Rescue Inc.,CT,6259
East Greenwich,US,RI08,41.6512,-71.4687,East Greenwich Animal Protection League,RI,2818
East Greenwich,US,RI133,41.6512,-71.4687,Midnight Run Rescue,RI,2818
Lunenburg,US,VT36,44.4247,-71.7542,Riverside Rescue,VT,5906
Warren,US,ME96,44.1192,-69.2366,Catahoula Rescue of New England,ME,4864
North Kingstown,US,RI09,41.5882,-71.4593,North Kingstown Animal Shelter,RI,2852
North Kingstown,US,RI23,41.5882,-71.4593,Pet Refuge,RI,2852
Wauregan,US,CT553,41.7442,-71.9097,Pride Rock Rescue,CT,6387
Middletown,US,RI04,41.5456,-71.2919,Potter League for Animals,RI,2842
Thomaston,US,ME04,44.0768,-69.144,Pope Memorial Humane Society of Knox County,ME,4861
Chicopee,US,MA519,42.1739,-72.5769,Mutt Rescue,MA,1020
Randolph Center,US,VT75,43.9438,-72.6064,Potters Angels Rescue,VT,5061
Exeter,US,RI55,41.5675,-71.5813,Friends of Exeter Animals,RI,2822
Plainfield,US,CT37,41.7073,-71.9535,Whiskers Animal Shelter,CT,6374
Goshen,US,CT162,41.8841,-72.2663,TarTan Gordon Setter Rescue,CT,6279
Willington,US,CT482,41.8841,-72.2663,Willington Animal Control,CT,6279
Oak Bluffs,US,MA480,41.4538,-70.5646,Angels Helping Animals Worldwide,MA,2557
Vineyard Haven,US,MA366,41.449,-70.6142,"Second Chance Animal Rescue, Inc",MA,2568
Springfield,US,MA136,42.1305,-72.5752,Thomas J. O'Connor Animal Control and Adoption Center,MA,1104
Chicopee,US,MA450,42.1486,-72.6083,Halfway Home Cat Rescue Inc.,MA,1021
Canterbury,US,CT534,41.7003,-71.9929,Eskies Online Multi-Breed Dog Rescue,CT,6331
St. Johnsbury,US,VT59,44.4286,-72.0137,"Kingdom Animal Shelter, Inc",VT,5819
Pittsford,US,VT11,43.7745,-72.82,Rutland County Humane Society,VT,5763
Mansfield,US,CT23,41.8021,-72.2549,Mansfield Animal Control,CT,6268
Mansfield Center,US,CT142,41.7718,-72.2083,CATS Northeast Inc.,CT,6250
Willington,US,CT264,41.7718,-72.2083,"American Lab Rescue, Inc",CT,6250
Williamstown,US,VT37,44.1225,-72.5418,Random Rescue,VT,5679
Tolland,US,CT573,41.8692,-72.3748,Paws for Life Animal Rescue,CT,6084
Wyoming,US,RI22,41.5193,-71.6795,Richmond Animal Control,RI,2898
Ellington,US,CT347,41.9144,-72.4532,Wiggle Pups Rescue,CT,6029
Ellington,US,CT68,41.9144,-72.4532,Ellington Animal Control,CT,6029
Mendon,US,VT19,43.6071,-72.9733,Green Mtn Pug Rescue,VT,5701
Rutland,US,VT78,43.6071,-72.9733,Maple Leaf Mutts,VT,5701
Pleasant Valley,US,CT199,41.9889,-72.5679,Mary's Kitty Korner,CT,6082
Lisbon,US,CT410,41.6046,-71.9845,"Compassion For Cats, New London County",CT,6351
Griswold,US,CT525,41.6046,-71.9845,Wings of Freedom Animal Rescue,CT,6351
Wakefield,US,RI121,41.4372,-71.5019,Save One Soul Animal Rescue League,RI,2880
Willimantic,US,CT386,41.7137,-72.2114,Town of Windham Animal Control,CT,6226
Coventry,US,CT286,41.7823,-72.3276,Kitty Angels of Connecticut Inc,CT,6238
Coventry,US,CT549,41.7823,-72.3276,Whitey's Only Wish Rescue Inc,CT,6238
Wakefield,US,RI33,41.4292,-71.5235,South Kingstown Animal Shelter,RI,2879
Westfield,US,MA341,42.1279,-72.7503,Westfield Homeless Cat Project,MA,1085
Westfield,US,MA70,42.1279,-72.7503,Westfield Animal Shelter,MA,1085
East Montpelier,US,VT08,44.2719,-72.4883,Central Vermont Humane Society,VT,5651
Vernon,US,CT453,41.8465,-72.4636,Sarah's Second Chance Dog Rescue,CT,6066
Vernon,US,CT504,41.8465,-72.4636,"Little Feet, Big Heart Rescue",CT,6066
Vernon,US,CT522,41.8465,-72.4636,The Cats Meow Animal Rescue League,CT,6066
Searsmont,US,ME156,44.3617,-69.1956,Miracle German Shepherd Dog Rescue of Maine,ME,4973
Huntington,US,MA210,42.2329,-72.8816,In Honey's Memory Cat Shelter,MA,1050
East Windsor,US,CT544,41.918,-72.6051,Brooke's Angels Rescue,CT,6088
Shaftsbury,US,VT18,43.0115,-73.192,Second Chance Animal Center,VT,5262
Fairfield,US,ME41,44.6143,-69.6385,Save Our Strays,ME,4937
Southwick,US,MA202,42.0512,-72.7488,Southwick Animal Control Facility,MA,1077
Montpelier,US,VT50,44.2585,-72.5708,Good Karma Rescue Inc.,VT,5602
Windsor Locks,US,CT540,41.9306,-72.6435,Hole In One Animal Rescue,CT,6096
Bolton,US,CT220,41.768,-72.4401,Sadie Mae Foundation,CT,6043
Lebanon,US,CT248,41.6373,-72.2376,Majestic Waterfowl Sanctuary,CT,6249
Lebanon,US,CT474,41.6373,-72.2376,CT Herding Dog Rescue,CT,6249
South Windsor,US,CT96,41.8346,-72.5583,South Windsor Police,CT,6074
Preston,US,CT110,41.5115,-72.0178,Preston Animal Control,CT,6365
Charlestown,US,RI18,41.3824,-71.6606,Charlestown Animal Shelter,RI,2813
Charlestown,US,RI120,41.3824,-71.6606,FairyDogMother Rescue,RI,2813
Manchester,US,CT556,41.7985487,-72.5323139,Monkey's Pack,CT,6042
Manchester,US,CT272,41.7778,-72.5211,The Queenie Foundation Inc.,CT,6040
Manchester,US,CT477,41.77780151,-72.52110291,Pack Leaders Dog Rescue of CT,CT,6040
Manchester,US,CT145,41.7758,-72.5219,Our Companions Animal Rescue,CT,6045
Granville,US,MA363,42.0583,-72.8564,Rainbow Rescues Inc,MA,1034
Windsor,US,CT260,41.8567,-72.6648,Town of Windsor Animal Control,CT,6095
Windsor,US,CT291,41.8567,-72.6648,Connecticut Cat Connection,CT,6095
North Granby,US,CT148,42.0087,-72.8394,The Nutmeg Weimaraner Club,CT,6060
Ledyard,US,CT90,41.4509,-72.0065,Ledyard Animal Control,CT,6339
Nantucket,US,MA129,41.2795,-70.1057,Nantucket Safe Harbor for Animals (NiSHA),MA,2554
East Hartland,US,CT228,41.9595,-72.7982,Bandits Place,CT,6035
Granby,US,CT324,41.9595,-72.7982,Forever Feisty Chinchilla Rescue Inc.,CT,6035
Westerly,US,RI06,41.3651,-71.8024,Westerly Animal Control,RI,2891
Stonington,US,CT287,41.3728,-71.8585,Stonington Animal Care & Control,CT,6379
Pawcatuck,US,CT481,41.3728,-71.8585,Stonington Animal Rescue Project,CT,6379
East Hartford,US,CT499,41.78,-72.6209,East Hartford Animal Control,CT,6108
Waitsfield,US,VT47,44.1904,-72.8275,Golden Huggs Rescue Inc,VT,5673
Uncasville,US,CT409,41.4636,-72.1045,"Focus on Ferals, Inc.",CT,6382
Skowhegan,US,ME20,44.7689,-69.7146,Somerset Humane Society,ME,4976
East Hartford,US,CT109,41.746,-72.6079,Protectors of Animals,CT,6118
Bloomfield,US,CT258,41.8299,-72.7254,"The Simon Foundation, Inc.",CT,6002
Glastonbury,US,CT157,41.7068,-72.5745,Glastonbury Animal Control,CT,6033
Glastonbury,US,CT246,41.7068,-72.5745,We Adopt Greyhounds Inc.,CT,6033
Glastonbury,US,CT371,41.7068,-72.5745,The Chi Society of CT,CT,6033
Simsbury,US,CT547,41.8771,-72.8206,Odies Orchard Hill Rescue,CT,6070
Mystic,US,CT456,41.3613,-71.976,CT Animal House Inc.,CT,6355
Wolcott,US,VT54,44.5426,-72.4542,Justice For Dogs,VT,5680
Hartford,US,CT388,41.7476,-72.6959,"Ferret Association of Connecticut, Inc",CT,6106
Buskirk,US,NY1020,42.9526,-73.434,HeartsHerd Animal Sanctuary,NY,12028
Groton,US,CT509,41.3499,-72.0505,Friday's Rescue Foundation,CT,6340
East Hampton,US,CT502,41.5765,-72.504,Connecticut Draft Horse Rescue,CT,6424
West Hartford,US,CT132,41.7552,-72.7553,West Hartford Animal Control,CT,6107
West Hartford,US,CT531,41.7552,-72.7553,Addicus Legacy Dog Rescue,CT,6107
Lee,US,MA213,42.315,-73.2496,Northeast Pyr Rescue (NEPR),MA,1238
Rocky Hill,US,CT557,41.6601,-72.6614,Hearts United Cat Rescue,CT,6067
Canton,US,CT421,41.8338,-72.8924,Boot n' Kit Canine Rescue,CT,6019
Canton,US,CT523,41.8338,-72.8924,Dog Star Rescue,CT,6019
Middlebury,US,VT12,44.0244,-73.1717,Homeward Bound Animal Welfare Center,VT,5753
Newington,US,CT323,41.6886,-72.7308,Connecticut Humane Society - Newington,CT,6111
Colebrook,US,CT516,42.0212,-73.1041,Soul Mutts Rescue CT,CT,6021
Farmington,US,CT484,41.7197,-72.8325,Emily's Friends,CT,6034
New Britain,US,CT369,41.6659,-72.7706,City of New Britain CT Animal Control,CT,6051
Winsted,US,CT430,41.9212,-73.0582,Save a Best Friend Animal Rescue,CT,6098
Unionville,US,CT309,41.7499,-72.8896,Double Dog Rescue,CT,6085
Old Lyme,US,CT207,41.3425,-72.2949,Old Lyme Animal Control,CT,6371
Middletown,US,CT104,41.5486,-72.662,"Cat Tales, Inc.",CT,6457
Middletown,US,CT352,41.5486,-72.662,"IMPS - Internet Miniature Pinscher Service, Inc. - New England  region",CT,6457
Middletown,US,CT397,41.5486,-72.662,Wagging Tails Dog Rescue,CT,6457
Berlin,US,CT237,41.6239,-72.7685,Hidden Treasures Adoption Center,CT,6037
Cropseyville,US,NY976,42.7478,-73.5547,The Animal Support Project,NY,12052
Burlington,US,CT122,41.7637,-72.9472,Burlington Municipal Dog Pound,CT,6013
Queensbury,US,NY179,43.3046,-73.5817,SPCA of Upstate New York,NY,12839
Schuylerville,US,NY1260,43.0936,-73.6009,Community Animal Action Project,NY,12871
Plainville,US,CT144,41.6724,-72.8651,Plainville Animal Control,CT,6062
Plainville,US,CT532,41.6724,-72.8651,Fur-Gotten Tails Animal Rescue,CT,6062
Great Barrington,US,MA122,42.2103,-73.354,A Place For Us: Bonnie's Foster Home for Shelter Dogs,MA,1230
Higganum,US,CT537,41.4613,-72.5767,Little Arfin' Acres,CT,6441
Bucksport,US,ME129,44.5774,-68.8014,Bucksport Animal Shelter,ME,4416
Bristol,US,CT452,41.6816,-72.93,"Rescue Dog Village Guardian, Inc",CT,6010
Bristol,US,CT536,41.6816,-72.93,Everybunny Counts,CT,6010
Vergennes,US,VT90,44.1653,-73.2546,New England Helps Greek Strays,VT,5491
Hinesburg,US,VT87,44.3274,-73.1137,VT Dog Rescue,VT,5461
Southington,US,CT247,41.6105,-72.8701,Southington Animal Control,CT,6489
Southington,US,CT280,41.6105,-72.8701,Best Friends For Life Animal Rescue,CT,6489
Southington,US,CT490,41.6105,-72.8701,TOMcat Animal Rescue,CT,6489
Bristol,US,CT498,41.6717,-72.9497,Friends of the Bristol CT Animal Shelter,CT,6011
Harwinton,US,CT539,41.7723,-73.0716,"Furry Friends Foster and Rescue, Inc.",CT,6791
Torrington,US,CT383,41.8123,-73.117,Feline Friends,CT,6790
Torrington,US,CT412,41.8123,-73.117,East Coast Humane Society,CT,6790
Torrington,US,CT438,41.8123,-73.117,For the Love of Labs Rescue,CT,6790
Torrington,US,CT53,41.8123,-73.117,Second Chance Boxer Rescue,CT,6790
Torrington,US,CT460,41.8123,-73.117,Northwest Hills K9 Rescue,CT,6790
Queensbury,US,NY1155,43.3303,-73.6747,F.A.C.T. (Fight Animal Cruelty Today),NY,12804
Queensbury,US,NY1228,43.3303,-73.6747,Friends of Phoebie Animal Rescue Inc.,NY,12804
Ferrisburgh,US,VT61,44.2408,-73.2236,Heidi's Haven Rescue,VT,5456
Durham,US,CT308,41.4579,-72.6786,Almost Home for Cats,CT,6422
Durham,US,CT463,41.4579,-72.6786,Nutts4Mutts,CT,6422
Old Saybrook,US,CT196,41.2944,-72.3958,Old Saybrook Animal Control,CT,6475
Meriden,US,CT79,41.534,-72.7999,Meriden Animal Control/Saving Paws,CT,6450
Meriden,US,CT567,41.534,-72.7999,New Beginnings and Forever Homes,CT,6450
Wilton,US,NY508,43.1814,-73.6992,H.O.P.E,NY,12831
Wilton,US,NY1035,43.1814,-73.6992,11th Hour Canine Rescue New York,NY,12831
Meriden,US,CT20,41.5381,-72.8075,Meriden Humane Society,CT,6451
West Hartford,US,CT88,41.5811,-72.8694,Animal Friends of Connecticut,CT,6137
Killingworth,US,CT178,41.3857,-72.5808,Labs4rescue,CT,6419
Killingworth,US,CT437,41.3857,-72.5808,Dachshund Rescue and Pet Services,CT,6419
Troy,US,NY1018,42.7231,-73.6644,"Adopt-A-Pet Clinic, Inc.",NY,12180
Terryville,US,CT60,41.6826,-73.0118,"Animal Rescue Foundation, Inc.",CT,6786
Waterford,US,NY1124,42.8024,-73.6957,Dog House Adoptions,NY,12188
Orleans,US,VT09,44.9429,-72.2163,Pope Memorial Frontier Animal Shelter Inc.,VT,5855
Westbrook,US,CT72,41.3037,-72.4617,Valley Shore Animal Welfare League,CT,6498
Cohoes,US,NY1106,42.7754,-73.712,Boght & Oakwood Veterinary Clinics,NY,12047
Marion,US,CT515,41.5636,-72.9261,Nile Valley Egyptian Foundation,CT,6444
Williston,US,VT58,44.4501,-73.1045,"All Breed Rescue, Inc.",VT,5495
Williston,US,VT85,44.4501,-73.1045,Vermont English Bulldog Rescue,VT,5495
Hillsdale,US,NY1061,42.187,-73.5019,Everlasting Hope Animal Rescue & Advocacy,NY,12529
East Greenbush,US,NY1196,42.5932,-73.6957,Northeast Avian Rescue,NY,12061
Clinton,US,CT188,41.2899,-72.5286,"Forgotten Felines, Inc.",CT,6413
Saratoga Springs,US,NY974,43.0791,-73.7806,Rottie Empire Rescue,NY,12866
North Haven,US,CT153,41.46,-72.819,North Haven Animal Control,CT,6492
Wallingford,US,CT563,41.46,-72.819,CottonTail Rabbit Rescue,CT,6492
Albany,US,NY604,42.683,-73.7415,Help Orphan Puppies,NY,12204
Charlotte,US,VT52,44.2917,-73.3033,Champlain Valley Canine Rescue,VT,5445
Shelburne,US,VT84,44.3863,-73.2117,Passion 4 Paws,VT,5482
Essex Junction,US,VT71,44.5215,-73.0609,Poodle Rescue of Vermont,VT,5451
Newtown,US,CT22,41.7599,-73.1986,Amanda Connection,CT,6759
Litchfield,US,CT252,41.7599,-73.1986,"M.E.O.W., Inc.",CT,6759
Essex Junction,US,VT89,44.4906,-73.1114,Little Woof Small Dog Rescue Inc.,VT,5453
West Cornwall,US,CT140,41.8389,-73.2903,Little Guild of Saint Francis,CT,6796
Albany,US,NY263,42.7049,-73.7682,Capital District Humane Association,NY,12211
Albany,US,NY295,42.7049,-73.7682,Whiskers Animal Benevolent League,NY,12211
Rensselaer,US,NY170,42.6525,-73.7567,Companion Animal Placement Program Inc.,NY,12224
Albany,US,NY98,42.6525,-73.7567,Peppertree Rescue,NY,12220
Albany,US,NY1052,42.6525,-73.7567,"Orange Street Cats, Inc.",NY,12201
Warrensburg,US,NY674,43.4948,-73.7801,Schroon River Animal Hospital,NY,12885
Westport,US,NY314,44.1836,-73.4364,North Country SPCA,NY,12993
Albany,US,NY64,42.6689,-73.7758,AnimaLovers,NY,12206
Corinth,US,NY61,43.2491,-73.8427,Adirondack Save-A-Stray,NY,12822
Albany,US,NY1060,42.6414,-73.7864,Karma K-9 Rescue Inc.,NY,12209
Greenfield Center,US,NY907,43.1312,-73.8521,Estherville Animal Shelter,NY,12833
Ballston Spa,US,NY1378,43.0049,-73.8524,Saratoga County Animal Shelter,NY,12020
Ballston Spa,US,NY1391,43.0049,-73.8524,Ballston Spa Veterinary Clinic,NY,12020
Oakville,US,CT574,41.5934,-73.0877,Kitty Kat Rescue,CT,6779
Prospect,US,CT103,41.5019,-72.9759,True Loving Companion,CT,6712
Waterbury,US,CT489,41.5581,-73.0519,"Spotty Dog Rescue, Inc",CT,6721
Albany,US,NY480,42.712,-73.819,Homeward Bound Dog Rescue of NY,NY,12205
Albany,US,NY848,42.712,-73.819,Forever Home Dog Rescue of the Capital District,NY,12205
Watertown,US,CT407,41.611,-73.1209,Blind Dog Rescue Alliance - CT,CT,6795
Watertown,US,CT414,41.611,-73.1209,Companion Pet Rescue - New England,CT,6795
Watertown,US,CT572,41.611,-73.1209,Perfect Imperfections,CT,6795
Northford,US,CT426,41.3784,-72.8215,All The Kings Horses Equine Rescue Inc.,CT,6472
Waterbury,US,CT112,41.5537,-73.0641,Rose Hope Animal Refuge,CT,6708
Trenton,US,ME79,44.544,-68.4223,SPCA of Hancock County,ME,4605
North Branford,US,CT98,41.3352,-72.7795,Branford Compassion Club,CT,6471
North Haven,US,CT211,41.3801,-72.8602,"Halfway Home Rescue, Inc.",CT,6473
North Haven,US,CT40,41.3801,-72.8602,The Animal Haven Inc.,CT,6473
North Haven ,US,CT533,41.3801,-72.8602,Fix and Feed North Haven Inc,CT,6473
Delmar,US,NY868,42.6182,-73.8341,Kitten Angels,NY,12054
Delmar,US,NY1257,42.6182,-73.8341,Free To Be Me Rescue,NY,12054
Delmar,US,NY1325,42.6182,-73.8341,"German Shepherd Rescue of NY, Inc.",NY,12054
Shelter Island,US,NY1189,41.0928,-72.3472,Sweetest Dog Rescue,NY,11964
Niskayuna,US,NY1039,42.7989,-73.8813,Capital Region Parrot Society,NY,12309
Niskayuna,US,NY1373,42.7989,-73.8813,"Guilderhaven, Inc",NY,12309
Bethlehem,US,CT415,41.6393,-73.2088,MCR - New Preston & West Coast,CT,6751
Colchester,US,VT91,44.5314,-73.204,A Canine Gem Rescue,VT,5446
Naugatuck,US,CT27,41.4915,-73.0529,Flora's Pet Project,CT,6770
naugatuck,US,CT61,41.4915,-73.0529,"Animals for Life, Inc.",CT,6770
Naugatuck,US,CT528,41.4915,-73.0529,Foster and Forever Pet Rescue,CT,6770
Sharon,US,CT559,41.87,-73.4547,Furry Flights to Freedom,CT,6069
East Hampton,US,NY288,41.0007,-72.1861,Elsas Ark Inc.,NY,11937
Schenectady,US,NY1382,42.8177,-73.9213,Voice for the Voiceless,NY,12308
Bethany,US,CT429,41.4185,-72.9952,"REGAP of Connecticut, Inc.",CT,6524
Hamden,US,CT505,41.3488,-72.9128,"Where the Love Is, Inc.",CT,6517
Branford,US,CT181,41.2774,-72.8088,Dan Cosgrove Animal Shelter,CT,6405
Branford,US,CT436,41.2774,-72.8088,Nutmeg CT Rescue,CT,6405
Schenectady,US,NY1383,42.7692,-73.9387,Furballs Rescue Inc,NY,12303
Woodbury,US,CT466,41.5669,-73.209,Better Days Rescue Fund,CT,6798
Hudson,US,NY117,42.2599,-73.7642,Animalkind Inc.,NY,12534
Schenectady,US,NY250,42.7886,-73.9749,Good Shepherd K9 Rescue - K9adopt,NY,12306
New Haven,US,CT307,41.3174,-72.93,The Purr Project Inc.,CT,6511
New Haven,US,CT74,41.3174,-72.93,The Friends of the New Haven Animal Shelter,CT,6511
East Haven,US,CT32,41.2776,-72.8771,East Haven Animal Shelter,CT,6512
Guilderland Center,US,NY1402,42.6981,-73.9675,Happy Cat Rescue Inc.,NY,12085
New Haven,US,CT167,41.3081,-72.9286,"The Greater New Haven Cat Project, Inc.",CT,6505
New Preston,US,CT75,41.6636,-73.3694,Pet Assistance Inc.,CT,6777
Washington,US,CT86,41.6636,-73.3694,"H.O.R.S.E of CT, Inc.",CT,6777
Peconic,US,NY197,41.0389,-72.4561,North fork animal welfare league / Riverhead animal Shelter,NY,11958
Southold,US,NY204,41.0389,-72.4561,The North Fork Animal Welfare League,NY,11958
Woodbridge,US,CT416,41.3527,-73.0108,Underhound Railroad,CT,6525
Seymour,US,CT570,41.3892,-73.0769,Coco's Animal Rescue Efforts of Seymour,CT,6483
Wainscott,US,NY55,40.9367,-72.2433,Animal Rescue Fund of the Hamptons Inc.,NY,11975
Glenville,US,NY808,42.9292,-74.0525,"Heaven Sent Animal Rescue, Inc",NY,12325
Southbury,US,CT99,41.4707,-73.2093,Loyal Paws Rescue & Sanctuary,CT,6488
Southbury,US,CT551,41.4707,-73.2093,Whiskers Pet Rescue,CT,6488
Southbury,US,CT571,41.4707,-73.2093,A Pups' Pizzazz,CT,6488
Sagaponack,US,NY1090,40.9253,-72.2786,Gimme Shelter Animal Rescue,NY,11962
West Haven,US,CT73,41.272,-72.9635,West Haven Animal Shelter,CT,6516
St. Albans,US,VT22,44.8103,-73.0841,Franklin County Animal Rescue,VT,5478
Duanesburg,US,NY923,42.7811,-74.0626,For the Love of Cats of New York,NY,12056
New Milford,US,CT185,41.5875,-73.4065,"Animal Welfare Society, Inc.",CT,6776
New Milford,US,CT542,41.5875,-73.4065,Wells Valley Cat Sanctuary,CT,6776
Red Hook,US,NY821,42.0496,-73.7971,Perfect Pets Rescue,NY,12523
Leeds,US,NY1133,42.2768,-73.9367,Paws of Hope,NY,12451
Westerlo,US,NY710,42.515,-74.0446,Midogrescue Foundation,NY,12193
Sandy Hook,US,CT314,41.4156,-73.2522,BayBrook Rescue,CT,6482
Southampton,US,NY711,40.9071,-72.4144,Amaryllis Farm Equine Rescue Inc,NY,11968
Southampton,US,NY914,40.9071,-72.4144,Last Chance Animal Rescue,NY,11968
Shelton,US,CT318,41.3036,-73.132,Compassion For Cats,CT,6484
Broadalbin,US,NY779,43.094,-74.1652,JACKSON'S LEGACY BULLY BREED RESCUE,NY,12025
Amsterdam,US,NY203,42.9533,-74.1844,Montgomery County SPCA,NY,12010
Peru,US,NY281,44.5893,-73.5176,Elmore SPCA,NY,12972
Jay,US,NY1244,44.375,-73.7286,The Joshua Fund Dog Rescue,NY,12941
Newtown,US,CT249,41.3942,-73.3138,The Animal Center Inc.,CT,6470
Newtown,US,CT431,41.3942,-73.3138,Kitten Associates,CT,6470
Newtown,US,CT63,41.3942,-73.3138,Canine Advocates of Newtown Inc.,CT,6470
Newtown,US,CT493,41.3942,-73.3138,Safe and Sound Rescue,CT,6470
Hawleyville,US,CT458,41.4275,-73.3556,Green Fur Kidz & the Furever Home shop,CT,6440
Plattsburgh,US,NY1349,44.6958,-73.4668,"Animal Rescue  Welfare Services, Inc",NY,12901
Verbank,US,NY1101,41.7228,-73.7053,Aslan's Cats,NY,12585
Stratford,US,CT334,41.2043,-73.1302,FeralCare,CT,6614
Stratford,US,CT38,41.2043,-73.1302,Stratford Animal Control,CT,6615
Stratford,US,CT526,41.2043,-73.1302,Rescued in the Nic of Time,CT,6614
Stratford,US,CT554,41.2043,-73.1302,Connecticut Parrot Rescue,CT,6615
Riverhead,US,NY1380,40.9242,-72.6493,The North Fork Country Kids,NY,11901
Trumbull,US,CT18,41.2555,-73.2121,Trumbull Animal Group,CT,6611
Saugerties,US,NY236,42.0793,-73.9891,Town of Saugerties Animal Shelter,NY,12477
New Fairfield,US,CT156,41.4653,-73.4944,New Fairfield Sherman Animal Welfare Society,CT,6812
Bridgeport,US,CT76,41.2043,-73.1692,Bridgeport Animal Control Facilites,CT,6610
Bethel,US,CT433,41.3794,-73.4021,2nd Chance Animal Rescue of CT,CT,6801
Bethel,US,CT445,41.3794,-73.4021,Bethel Animal Control,CT,6801
Danbury,US,CT330,41.4251,-73.4685,PawSafe,CT,6811
Salt Point,US,NY215,41.7983,-73.8322,P.A.N.T.,NY,12578
Hampton Bays,US,NY48,40.8491,-72.5781,Southampton Animal Shelter Foundation,NY,11942
Danbury,US,CT31,41.3947,-73.4544,Danbury Animal Welfare Society Inc. DAWS,CT,6813
Easton,US,CT36,41.2519,-73.2825,Easton Animal Shelter,CT,6612
Danbury,US,CT403,41.3907,-73.4555,Tails of Courage,CT,6810
Calverton,US,NY60,40.9264,-72.763,Kent Animal Shelter Inc.,NY,11933
Patterson,US,NY640,41.4703,-73.5551,Kodi's Club,NY,12563
Patterson,US,NY1334,41.4703,-73.5551,Happy Life Animal Rescue,NY,12563
Fairfield,US,CT175,41.1994,-73.2341,"Pet Protectors, Inc.",CT,6432
Gloversville,US,NY1119,43.0537,-74.3431,"Regional Animal Shelter, Inc",NY,12078
Staatsburg,US,NY536,41.8484,-73.9104,Pups and stuff,NY,12580
Holmes,US,NY1362,41.527,-73.6466,The Upper Paw Professional Dog Training and Rescue,NY,12531
Hyde Park,US,NY183,41.7816,-73.9094,C. A. R. E. Canine Athlete Rescue Effort,NY,12538
Hyde Park,US,NY121,41.7816,-73.9094,Dutchess County SPCA,NY,12538
Kingston,US,NY211,41.9278,-74.0182,Ulster County SPCA,NY,12401
Trenton,US,NY310,41.9278,-74.0182,Crest-Care Inc.,NY,12401
Kingston,US,NY720,41.9278,-74.0182,Paws Unlimited,NY,12401
Rocky Point,US,NY824,40.9537,-72.9347,Fontastic Kennels,NY,11778
Rocky Point,US,NY1203,40.9537,-72.9347,SHARP of NY,NY,11778
Rocky Point,US,NY1204,40.9537,-72.9347,Paws Unite People,NY,11778
Fairfield,US,CT575,41.1752929,-73.2830924,German Shepherd Rescue of CT,CT,6824
Westhampton,US,NY496,40.8166,-72.6705,Bideawee,NY,11977
Speonk,US,NY696,40.8188,-72.7095,LI Kitties,NY,11972
Sprakers,US,NY360,42.8028,-74.3994,Ayres Memorial Animal Shelter,NY,12166
Southport,US,CT538,41.1428,-73.2884,Super Paws Rescue Inc,CT,6890
Brewster,US,NY982,41.404,-73.6165,Guardian Angel Rescue,NY,10509
Ridgefield,US,CT232,41.301,-73.5003,Ridgefield Operation Animal Rescue (ROAR),CT,6877
Ridgefield,US,CT446,41.301,-73.5003,Minnie and Moe's Pups,CT,6877
Ridgefield,US,CT552,41.301,-73.5003,Looking Glass Animal Rescue,CT,6877
Poughkeepsie,US,NY950,41.6785,-73.8851,"My Hope's In You Small Animal Rescue, Inc.",NY,12603
Poughkeepsie,US,NY1064,41.6785,-73.8851,Hudson Valley Animal Rescue and Sanctuary,NY,12603
Carmel,US,NY169,41.4347,-73.6655,Putnam Humane Society,NY,10512
East Moriches,US,NY164,40.8087,-72.754,RSVP Inc. (Responsible Solutions for Valued Pets),NY,11940
Hopewell Jct,US,NY912,41.5709,-73.8065,Blissful Strays Animal Adoption,NY,12533
Howes Cave,US,NY234,42.6875,-74.4269,Animal Shelter of Schoharie Valley,NY,12092
Fultonham,US,NY925,42.5675,-74.3971,"Safe At Last Animal Rescue, Inc.",NY,12071
Greens Farms,US,CT529,41.1229,-73.3159,Little Black Dog Rescue,CT,6838
Westport,US,CT184,41.1428,-73.3519,Westport Animal Control,CT,6880
Westport,US,CT243,41.1428,-73.3519,Sweet Adoptables,CT,6880
Westport,US,CT30,41.1428,-73.3519,Save Our Strays Inc.,CT,6880
Westport,US,CT322,41.1428,-73.3519,Connecticut Humane Society - Westport Branch,CT,6880
Westport,US,CT349,41.1428,-73.3519,Little Pink Shelter,CT,6880
Westport,US,CT92,41.1428,-73.3519,TAILS (The Alliance In Limiting Strays),CT,6880
Wilton,US,CT70,41.1997,-73.4359,Animals in Distress,CT,6897
Wilton,US,CT568,41.1997,-73.4359,Wilton Animal Control,CT,6897
Middle Island,US,NY713,40.8782,-72.9563,STAR (Save The Animals Rescue) Foundation,NY,11953
Rosendale,US,NY764,41.845,-74.0735,Town of Rosendale,NY,12472
Middleburgh,US,NY571,42.5242,-74.41,FOREVER HOME GREYHOUND ADOPTION,NY,12122
Wappingers Falls,US,NY1181,41.5971,-73.8857,Crate Escape,NY,12590
Wappingers Falls,US,NY1375,41.5971,-73.8857,Compassionate Animal Rescue of Dutchess County,NY,12590
Port Jefferson Station,US,NY200,40.9152,-73.0413,Save-A-Pet Animal Rescue,NY,11776
South Salem,US,NY1169,41.2536,-73.5398,Rock n' Rescue,NY,10590
Saranac Lake,US,NY89,44.3255,-74.1316,Tri-Lakes Humane Society,NY,12983
Norwalk,US,CT25,41.1316,-73.4046,PAWS (Pet Animal Welfare Society),CT,6851
Norwalk,US,CT541,41.1316,-73.4046,Red Leash Rescue Inc,CT,6851
Shirley,US,NY1323,40.7884,-72.8692,Tommy's House Animal Rescue,NY,11967
Selden,US,NY862,40.8705,-73.0387,Compassionate Action Inc,NY,11784
Fishkill,US,NY1207,41.5431,-73.8962,Stray Help,NY,12524
Mastic Beach,US,NY1308,40.7653,-72.8469,"LI Chihuahua Rescue, Inc.",NY,11951
Norwalk,US,CT198,41.1245,-73.4373,Rabbit Allies of CT,CT,6850
Norwalk,US,CT417,41.1245,-73.4373,"Animal Nation, Inc",CT,6850
Norwalk,US,CT555,41.1245,-73.4373,Shaggy Dog Rescue & Lexi's Angels,CT,6850
Stony Brook,US,NY478,40.9256,-73.1414,SBU Cat Network,NY,11794
Stony Brook,US,NY750,40.9067,-73.1281,Long Island Bulldog Rescue,NY,11790
Mahopac,US,NY1158,41.3717,-73.7491,Love of Animals Rescue,NY,10541
New  Canaan,US,CT13,41.1521,-73.4946,STRAYS AND OTHERS,CT,6840
New Canaan,US,CT254,41.1521,-73.4946,"Sunshine Golden Retriever Rescue, LLC",CT,6840
New Canaan,US,CT331,41.1521,-73.4946,Bully Breed Rescue Inc.,CT,6840
Medford,US,NY739,40.8175,-72.9838,Almost Home Animal Rescue and Adoption inc.,NY,11763
Medford,US,NY929,40.8175,-72.9838,Brookhaven Animal Rescue Alliance Ltd,NY,11763
Goldens Bridge,US,NY1146,41.2925,-73.6769,Amber's Angels Rescue,NY,10526
Farmingville,US,NY1123,40.8363,-73.0418,"Paw Pact Alliance, Inc.",NY,11738
Darien,US,CT566,41.0776,-73.4836,"A Second Chance for Ziva, Inc.",CT,6820
Beacon,US,NY303,41.5079,-73.9638,Animal Rescue Foundation,NY,12508
Beacon,US,NY369,41.5079,-73.9638,Mid Hudson Animal Aid,NY,12508
Beacon,US,NY695,41.5079,-73.9638,National Great Pyrenees Rescue,NY,12508
East Patchogue,US,NY1253,40.7711,-73.0011,New York Bully Crew,NY,11772
Putnam Valley,US,NY1232,41.3764,-73.8461,Oliver's Orphan Oasis,NY,10579
Putnam Valley,US,NY1386,41.3764,-73.8461,BeFreegle Foundation,NY,10579
Stamford,US,CT393,41.0967,-73.5208,"Pitter Patter Feline Rescue, Inc.",CT,6907
Stamford,US,CT422,41.0967,-73.5208,"Community Cats, Inc.",CT,6907
Stamford ,US,CT558,41.0967,-73.5208,Project Precious Rescue ,CT,6907
Lake Ronkonkoma,US,NY816,40.8218,-73.1155,Pitter..Patter..Paws..,NY,11779
Ronkonkoma,US,NY1388,40.8218,-73.1155,Ronkonkoma Cat Helpers,NY,11779
Holbrook,US,NY1275,40.7986,-73.0761,"A Home Fur Now Rescue, Inc",NY,11741
Accord,US,NY335,41.8206,-74.2385,Project Cat Inc,NY,12404
Kings Park,US,NY1326,40.8851,-73.2434,Pawsome Pet Rescue,NY,11754
Bedford,US,NY611,41.1735,-73.6486,Community Cats Inc.,NY,10506
Stamford,US,CT408,41.0852,-73.5445,Max's Furry Family Rescue,CT,6905
Stamford,US,CT478,41.0852,-73.5445,STARelief and Pet Assistance,CT,6905
Stamford,US,CT472,41.0698,-73.5242,Animals-R-Family,CT,6906
Smithtown,US,NY53,40.8537,-73.2089,Smithtown Animal Shelter,NY,11787
Smithtown,US,NY890,40.8537,-73.2089,Long Island Feline Adoption Center (LIFAC),NY,11787
Smithtown,US,NY1302,40.8537,-73.2089,"Happy Tails Dog Rescue, Inc.",NY,11787
Saint Johnsville,US,NY349,42.9992,-74.6798,"Second Chance Cat Rescue, Inc.",NY,13452
Gardiner,US,NY393,41.6949,-74.1744,Dogs Best Friend Adoption Center,NY,12525
Newburgh,US,NY180,41.5175,-74.0424,Town of Newburgh Animal Control & Shelter,NY,12550
Newburgh,US,NY450,41.5175,-74.0424,Newburgh SCATS,NY,12550
Newburgh,US,NY736,41.5175,-74.0424,MDW Feline Rescue,NY,12550
Mohegan Lake,US,NY344,41.3156,-73.8484,"IMPS - Internet Miniature Pinscher Service, Inc. - NY Region",NY,10547
Stamford,US,CT111,41.053,-73.5404,Stamford Homeless Pets & OPIN,CT,6902
Stamford,US,CT257,41.053,-73.5404,"Friends of Felines, Inc.",CT,6902
Stamford,US,CT530,41.053,-73.5404,Stamford Animal Control Center,CT,6902
Stamford,US,CT576,41.053,-73.5404,"Garden Rescues, Inc.",CT,6902
Northport,US,NY1164,40.9058,-73.3305,Northport Cat Rescue Association Inc.,NY,11768
Mount Kisco,US,NY1226,41.196,-73.7327,"Jennys Hope Rescue, Inc",NY,10549
Sayville,US,NY1279,40.7462,-73.0813,IMAGINE Pet Rescue,NY,11782
Kerhonkson,US,NY1150,41.7852,-74.2857,C&H Animal Rescue,NY,12446
Crompond,US,NY1276,41.295,-73.8658,FURRR 911,NY,10517
East Northport,US,NY445,40.865,-73.3185,Huntington Shelter and Adoption Center,NY,11731
Commack,US,NY1309,40.841,-73.2836,Feline Victory Rescue,NY,11725
Central Islip,US,NY1290,40.7887,-73.1978,New Hope Rescue Ranch,NY,11722
New Windsor,US,NY213,41.4712,-74.0599,Hudson Valley SPCA - Orange County,NY,12553
Highland Falls,US,NY469,41.3757,-73.9751,4 Paws Humane Society,NY,10928
Cornwall,US,NY330,41.4327,-74.0425,PRECIOUS PAWS,NY,12518
Greenlawn,US,NY1315,40.8637,-73.3609,Ollie's Angels Animal Rescue,NY,11740
Cortlandt Manor,US,NY875,41.2845,-73.9035,"Sindee's Strays, Inc.",NY,10567
Cortlandt Manor,US,NY1385,41.2845,-73.9035,Town and  Country K9 ResQ LTD.,NY,10567
Walden,US,NY25,41.5624,-74.1767,Humane Society of Walden,NY,12586
Greenwich,US,CT116,41.056,-73.6571,"Adopt-A-Dog, Inc.",CT,6831
Greenwich,US,CT289,41.0319,-73.6302,Greenwich Animal Control,CT,6830
Huntington,US,NY04,40.8673,-73.4107,"Grateful Paw Cat Shelter, LAPH",NY,11743
Huntington,US,NY74,40.8673,-73.4107,Little Shelter Animal Rescue,NY,11743
Huntington,US,NY86,40.8673,-73.4107,League for Animal Protection of Huntington - Dog Program,NY,11743
Huntington,US,NY1142,40.8673,-73.4107,"Golden Paw Society, Inc.",NY,11743
Huntington,US,NY1210,40.8673,-73.4107,"Get A Bull, Inc",NY,11743
Huntington,US,NY1336,40.8673,-73.4107,Pioneers for Animal Welfare Society Inc (PAWS),NY,11743
Islip,US,NY1013,40.7356,-73.214,Shelter Link,NY,11751
Thornwood,US,NY1358,41.1196,-73.7755,Wagging Tails Dog Rescue NY,NY,10594
Brainardsville,US,NY672,44.8578,-74.0339,Focus on Ferals,NY,12915
Croton on Hudson,US,NY977,41.2085,-73.8887,Italian Greyhound Place,NY,10520
Dix Hills,US,NY125,40.8201,-73.3753,"Pet Adoption League of New York, Inc.",NY,11746
Salisbury Mills,US,NY1289,41.4363,-74.1206,Reenies Rabbit Rescue,NY,12577
Ossining,US,NY999,41.1712,-73.85,For the LOVE of DOGS,NY,10562
Briarcliff Manor,US,NY282,41.1465,-73.8342,SPCA of Westchester,NY,10510
Port Chester,US,NY622,41.01,-73.6739,NYC Bronx Westchester Cat Coalition / NYC Cat Coalition,NY,10573
Port Chester,US,NY1110,41.01,-73.6739,"Bully Baby Rescue, Inc",NY,10573
Valhalla,US,NY35,41.0837,-73.7755,"Forgotten Felines, Inc.",NY,10595
Deer Park,US,NY995,40.7618,-73.3282,"Yorkie911 Rescue, Inc.",NY,11729
Deer Park,US,NY1099,40.7618,-73.3282,"New York State Retriever Rescue, Inc,",NY,11729
Little Falls,US,NY509,43.0474,-74.8596,H.A.L.O. (Helping Animals Live Organization),NY,13365
Pine Bush,US,NY1129,41.6138,-74.3097,Hollywood Rescue,NY,12566
Pine Bush,US,NY1267,41.6138,-74.3097,Suruluna Animal Rescue,NY,12566
Washingtonville,US,NY129,41.43,-74.1575,Humane Society of Blooming Grove,NY,10992
Maybrook,US,NY1361,41.4884,-74.2159,Bleu's Canine Rescue Inc,NY,12543
Melville,US,NY1273,40.7934,-73.4045,Earth Angels Companion Rescue,NY,11747
Oyster Bay,US,NY547,40.8656,-73.5279,The Patricia H. Ladew Foundation,NY,11771
North Babylon,US,NY1366,40.734,-73.3244,"Tender Loving Cats, Inc",NY,11703
White Plains,US,NY1004,41.0339,-73.7633,"Animal Welfare League of Westchester County, Inc.",NY,10602
White Plains,US,NY1298,41.0339,-73.7633,SNARR Northeast,NY,10602
Elmsford,US,NY1303,41.0556,-73.8156,Paws Crossed Animal Rescue Inc.,NY,10523
White Plains,US,NY1350,41.0409,-73.8088,Wayward Ranch Animal Sanctuary,NY,10607
Syosset,US,NY527,40.8148,-73.5017,Town of Oyster Bay Animal Shelter,NY,11791
West Babylon,US,NY275,40.7176,-73.3551,Town of Babylon Animal Shelter,NY,11704
West Babylon,US,NY1058,40.7176,-73.3551,Bella Bast Rescue Inc.,NY,11704
West Babylon,US,NY1313,40.7176,-73.3551,"Long Island Greyhound Connection, Inc",NY,11704
Brightwaters,US,NY381,40.7785,-73.4796,A Home at Last Animal Adoption Network,NY,11803
Plainview,US,NY829,40.7785,-73.4796,"Forgotten Friends of Long Island, Inc.",NY,11803
Plainview,US,NY1174,40.7785,-73.4796,A New Beginning Animal Rescue Corp.,NY,11803
Valley Cottage,US,NY580,41.1234,-73.946,Tiny Treasures Rescue,NY,10989
New City,US,NY836,41.1491,-73.9936,Heaven Can Wait Rescue,NY,10956
Lindenhurst,US,NY667,40.6881,-73.3728,Carolyns Critters,NY,11757
Ardsley,US,NY24,41.0126,-73.8428,Cat Assistance Inc.,NY,10502
Ardsley,US,NY1287,41.0126,-73.8428,"FurBridge, Inc.",NY,10502
Pomona,US,NY380,41.1854,-74.0429,Hi-Tor Animal Care Center,NY,10970
Farmingdale,US,NY784,40.7243,-73.444,A Wing And A Prayer Animal Rescue,NY,11735
Glen Head,US,NY769,40.8302,-73.6077,Shepherds Hope Rescue,NY,11545
Larchmont,US,NY187,40.9351,-73.7577,Pet Rescue,NY,10538
Dobbs Ferry,US,NY1314,41.0128,-73.8661,Liza's Friends,NY,10522
Cooperstown,US,NY1321,42.6914,-74.943,Susquehanna Animal Shelter,NY,13326
Copiague,US,NY1191,40.6801,-73.3952,Second Chance Animal Rescue Inc.,NY,11726
Amityville,US,NY516,40.6867,-73.4089,Kindness for Kitties,NY,11701
Mohawk,US,NY280,43.0036,-74.9942,Herkimer County Humane Society,NY,13407
Bloomingburg,US,NY1187,41.5598,-74.4419,Fur Every Paws' Sake / Hopeful Tails - Orange County,NY,12721
Nanuet,US,NY352,41.0979,-74.009,Northstar Placement,NY,10954
Bardonia,US,NY1088,41.0979,-74.009,K9 Safehouse Rescue,NY,10954
Old Westbury,US,NY1369,40.7837,-73.6043,A-Team ELITE Rescue Dogs,NY,11568
Levittown,US,NY1136,40.7254,-73.5169,Tuff Tails Animal Rescue,NY,11756
Levittown,US,NY1188,40.7254,-73.5169,Pit Of Our Souls Rescue Inc,NY,11756
Goshen,US,NY116,41.4021,-74.3196,Goshen Humane Society Inc.,NY,10924
Westbury,US,NY872,40.7559,-73.5744,Pets4Luv Foundation,NY,11590
Massapequa,US,NY520,40.6817,-73.461,All About Spay Neuter Inc.,NY,11758
Port Washington,US,NY514,40.835,-73.6956,North Shore Animal League America,NY,11050
Port Washington,US,NY118,40.835,-73.6956,Town of North Hempstead Animal Shelter,NY,11050
Roslyn,US,NY1233,40.7977,-73.6475,Helping Paw Rescue Northeast Adoptions,NY,11576
Mount Vernon,US,NY1179,40.9241,-73.8275,tlc Rescue,NY,10552
Seaford,US,NY1307,40.6813,-73.4911,"Redemption Rescues, Inc",NY,11783
Middletown,US,NY19,41.4537,-74.3981,Humane Society of Middletown New York,NY,10940
Middletown,US,NY85,41.4537,-74.3981,Pets Alive,NY,10940
Middletown,US,NY1095,41.4537,-74.3981,Helpers 4 Shelters,NY,10940
Middletown,US,NY1332,41.4537,-74.3981,Grateful Doggies Rescue Retreat,NY,10940
Wantagh,US,NY359,40.6861,-73.5101,Town of Hempstead Animal Shelter,NY,11793
Wantagh,US,NY457,40.6861,-73.5101,Last Hope Inc.,NY,11793
Wantagh,US,NY1237,40.6861,-73.5101,Road to Home Rescue Support,NY,11793
Mt. Vernon,US,NY439,40.9073,-73.8369,Mt. Vernon Animal Shelter,NY,10550
Manhasset,US,NY1028,40.7976,-73.6888,Long Road Home,NY,11030
Yonkers,US,NY186,40.9188,-73.862,Pet Adoption League,NY,10704
Yonkers,US,NY63,40.9188,-73.862,Yonkers Animal Shelter,NY,10704
Delhi,US,NY51,42.2771,-74.9177,Heart of the Catskills Humane Society,NY,13753
Suffern,US,NY481,41.1231,-74.1174,C.A.T.S. dba Cats for Adoption,NY,10901
Bronx,US,NY1268,40.8495,-73.7891,Adore-a-Bullie Paws and Claws,NY,10464
Yonkers,US,NY716,40.9311,-73.8992,Yonkers Humane Society Inc.,NY,10702
Great Neck,US,NY1242,40.7986,-73.7336,Humane Urban Group,NY,11023
Closter,US,NJ279,40.9709,-73.9598,CLAWS,NJ,7624
Great Neck,US,NY669,40.7872,-73.7281,Long Island Rabbit Rescue Group,NY,11021
Park Ridge,US,NJ613,41.0322,-74.0429,Halfway Hounds,NJ,7656
Rock Hill,US,NY18,41.6186,-74.5902,Sullivan County SPCA,NY,12775
New Hyde Park,US,NY963,40.7445,-73.6789,"HEART Rescue Group, Inc.",NY,11040
Westwood,US,NJ371,41.0042,-74.0274,Caring About The Strays (C.A.T.S.) Inc.,NJ,7675
Westwood,US,NJ779,41.0042,-74.0274,Peace4Paws Inc.,NJ,7675
River Vale,US,NJ890,41.0042,-74.0274,Good Karma Dog Rescue,NJ,7675
Bronx,US,NY1254,40.8994,-73.9045,Magnificat Cat Rescue,NY,10471
New York,US,NY587,40.8253,-73.8192,The Poor Animals of St. Francis Inc.,NY,10465
Hillsdale,US,NJ403,41.0037,-74.0441,Pekingese Rescue Network Inc.,NJ,7642
Saddle River,US,NJ466,41.0501,-74.0976,The National Foundation for Animal Rescue,NJ,7458
Douglaston,US,NY992,40.7587,-73.7335,SIBLING AND KITTY ADOPTIONS,NY,11362
Freeport,US,NY936,40.6535,-73.5865,Ruff House Rescue,NY,11520
Freeport,US,NY1027,40.6535,-73.5865,Our Best Friends Rescue,NY,11520
Freeport,US,NY1082,40.6535,-73.5865,"All About Cats Rescue, Inc",NY,11520
Bronx,US,NY1121,40.8429,-73.8596,NYC New Beginning Animal Rescue,NY,10462
Dumont,US,NJ850,40.9454,-73.9925,Chelseas Hope Boxer Rescue,NJ,7628
Tenafly,US,NJ173,40.9222,-73.9654,Pet ResQ Inc.,NJ,7670
Baldwin,US,NY657,40.655,-73.6102,People Animals Team-up Successfully Inc (PATS),NY,11510
Baldwin,US,NY916,40.655,-73.6102,"New Beginnings Cat and Kitten Adoptions, Inc.",NY,11510
Bronx,US,NY652,40.8395,-73.8809,Animals Saved by Grace,NY,10460
Washington Township,US,NJ632,40.9857826,-74.0637855,Hugs For Hounds,NJ,7676
Warwick,US,NY188,41.268,-74.3607,Warwick Valley Humane Society,NY,10990
Warwick,US,NY844,41.268,-74.3607,Angels In Waiting Rescue,NY,10990
Whitestone,US,NY879,40.7825,-73.8124,Amazing Animals Rescue and Adoptions,NY,11357
Allendale,US,NJ509,41.0271,-74.1299,Almost Home Dog Rescue of NJ,NJ,7401
Flushing,US,NY1113,40.7608,-73.7964,Give Me Shelter Project,NY,11358
Malverne,US,NY774,40.6745,-73.6729,Courageous Cats,NY,11565
New York,US,NY714,40.8571,-73.93,The Animal Project,NY,10040
Waldwick,US,NJ480,41.0127,-74.1263,"Hug-a-Bunny Rabbit Rescue, Inc.",NJ,7463
Flushing,US,NY178,40.7693,-73.8223,Friends of Strays Inc,NY,11354
Flushing,US,NY408,40.7693,-73.8223,"Abandoned Angels Cocker Spaniel Rescue, Inc.",NY,11354
Flushing,US,NY949,40.7693,-73.8223,Second Chance Rescue,NY,11354
New York,US,NY818,40.8496,-73.9364,WaHi Cats (Washington Heights Cat Colony),NY,10033
River Edge,US,NJ635,40.9269,-74.0386,Chance at Life Cat Rescue,NJ,7661
flushing,US,NY165,40.7387,-73.7936,Brent's Bountiful Bobtails,NY,11365
Valley Stream,US,NY1251,40.6741,-73.7043,BARRK Animal Rescue,NY,11580
Flushing,US,NY1271,40.7519,-73.8197,Lucky Black Cats of Mew York,NY,11355
Paramus,US,NJ275,40.9444,-74.0758,Happy Tails Animal Rescue,NJ,7653
Paramus,US,NJ627,40.9444,-74.0758,Bonnies Animal Rescue Kingdom,NJ,7653
East Rockaway,US,NY486,40.6392,-73.6683,Fur Babies,NY,11518
New York,US,NY1115,40.8245,-73.9493,Bronx Tails Cat Rescue,NY,10031
Ringwood,US,NJ817,41.0896,-74.2677,Southern Paws Inc.,NJ,7456
Edgewater,US,NJ677,40.837,-73.9769,"Paws on the Green, Inc.",NJ,7020
Cuddebackville,US,NY975,41.4846,-74.6338,Hudson Valley Rottweiler Rescue,NY,12729
New York,US,NY1042,40.8015,-73.9377,Rabbit Rescue & Rehab,NY,10035
New York,US,NY1392,40.8015,-73.9377,Bunnies and Beyond,NY,10035
Palisades Park,US,NJ387,40.8463,-73.9961,Animal Life Savers Inc.,NJ,7650
Palisades Park,US,NJ583,40.8463,-73.9961,Fly Away Home Inc.,NJ,7650
Astoria,US,NY1376,40.7763,-73.9091,Paul the Cat Guy Inc,NY,11105
Woodmere,US,NY619,40.6325,-73.713,Randis Rescues,NY,11598
Woodmere,US,NY1379,40.6325,-73.713,Alleykattz Rescue,NY,11598
Hewitt,US,NJ545,41.1715,-74.3724,The Last Resort,NJ,7421
Teterboro,US,NJ29,40.867,-74.0404,Bergen County Animal Shelter,NJ,7608
Forest Hills,US,NY1145,40.7204,-73.8474,"All About Rabbits Rescue, Inc",NY,11375
New York,US,NY455,40.7067,-73.8298,CSM Stray Foundation (USA) Inc.,NY,11415
New York,US,NY12,40.7911,-73.9452,Animal Care Centers of NYC - Manhattan,NY,10029
Cliffside Park,US,NJ488,40.8217,-73.9886,Angels for Animals Network,NJ,7010
Cliffside Park,US,NJ739,40.8217,-73.9886,Bergen County Protect and Rescue Foundation,NJ,7010
Oakland,US,NJ06,41.0276,-74.2352,Ramapo Bergen Animal Refuge,NJ,7436
Oakland,US,NJ877,41.0276,-74.2352,"Real Dog Rescue, Inc.",NJ,7436
Long Beach,US,NY127,40.5884,-73.6609,Long Beach Humane Society,NY,11561
Long Beach,US,NY615,40.5884,-73.6609,Posh Pets Rescue,NY,11561
Hawthorne,US,NJ437,40.9575,-74.1583,Friends of Homeless Animals,NJ,7506
New York,US,NY123,40.7976,-73.9676,Manhattan Valley Cat Rescue,NY,10025
New York,US,NY251,40.7976,-73.9676,Neighborhood Cats Inc.,NY,10025
Calais,US,ME03,45.1685,-67.2942,PAWS Brave Hearts,ME,4619
New York,US,NY29,40.7826,-73.9533,ASPCA,NY,10128
New York,US,NY1354,40.7826,-73.9533,Hopewell Rescue,NY,10128
Woodside,US,NY348,40.7443,-73.9039,Lindas Feral Cat Assistance,NY,11377
Woodside,US,NY525,40.7443,-73.9039,KittyKaretakers of Queens,NY,11377
Washington Mills,US,NY201,43.05,-75.2733,NYS Chapter of the HRS/THE Rabbit Resource,NY,13479
New York,US,NY440,40.7778,-73.9559,Woof Dog Rescue Inc.,NY,10028
New York,US,NY606,40.7778,-73.9559,"Zanis Furry Friends ZFF, Inc",NY,10028
Lodi,US,NJ623,40.8769,-74.0828,Animal Rescue R Us,NJ,7644
South Ozone Park,US,NY790,40.6748,-73.8169,For Animals Inc. - Shelter,NY,11420
New York,US,NY768,40.77163,-73.9524,2000 Spays and Neuters Animal Rescue,NY,10075
New York,US,NY1274,40.77163,-73.9524,Rescue Dogs Rock NYC,NY,10075
Elmwood Park,US,NJ40,40.9048,-74.1208,Save The Animals Rescue Team II,NJ,7407
Middle Village,US,NY887,40.7177,-73.8818,Four Paws Sake NYC,NY,11379
Middle Village,US,NY1156,40.7177,-73.8818,"Timber's Legacy, Inc.",NY,11379
New York,US,NY704,40.7859,-73.9752,Uptown Cats,NY,10024
New York,US,NY1122,40.7859,-73.9752,Bully Project,NY,10024
New York,US,NY1288,40.7859,-73.9752,Small World Animal Rescue,NY,10024
Wanaque,US,NJ563,41.0461,-74.2849,All Humane Animal Rescue,NJ,7465
Hasbrouck Heights,US,NJ408,40.863,-74.0749,FOCAS,NJ,7604
Paterson,US,NJ363,40.9176,-74.1449,Here Kitty Kitty,NJ,7504
North Haledon,US,NJ584,40.9502,-74.1836,A Pathway to Hope,NJ,7508
North Haledon,US,NJ601,40.9502,-74.1836,"High Mountain Animal Rescue, Inc.",NJ,7508
New York,US,NY20,40.7686,-73.9602,Metropolitan Maltese Rescue,NY,10021
Long Island City,US,NY1374,40.7468,-73.9396,Korean K9 Rescue,NY,11101
Ozone Park,US,NY27,40.6765,-73.844,Bobbi & the Strays,NY,11417
Ozone Park,US,NY1047,40.6765,-73.844,Heavenly Angels Animal Rescue,NY,11417
New Hartford,US,NY1219,43.0713,-75.2956,Purrs and Whiskers,NY,13413
New Hartford,US,NY1225,43.0713,-75.2956,Kitkat Rescue and Adoption,NY,13413
New York,US,NY245,40.7749,-73.9819,Stray From The Heart,NY,10023
New York,US,NY1043,40.7749,-73.9819,Frankie's Fund for Feline Care and Rescue,NY,10023
New York,US,NY1351,40.7749,-73.9819,Zero Stray Pawject,NY,10023
Ridgewood,US,NY1211,40.7045,-73.8927,A Tail Of Two Kitties,NY,11385
New York,US,NY979,40.7582,-73.9677,Unleashed,NY,10022
Whitesboro,US,NY643,43.1163,-75.3073,Col Potter Cairn Rescue Network-NE,NY,13492
New York,US,NY488,40.7644,-73.9837,Anjellicle Cats Rescue,NY,10019
New York,US,NY599,40.7644,-73.9837,All About Labs Rescue Inc.,NY,10019
Far Rockaway,US,NY1292,40.6022,-73.7568,BRAT Rescue Inc.,NY,11691
Haskell,US,NJ881,41.0272,-74.2987,"Bright Starz Neu-Life Animal Rescue, Inc.",NJ,7420
New York,US,NY993,40.7526,-73.9751,Rescuzilla,NY,10017
New York,US,NY1041,40.7526,-73.9751,Rebound Hounds,NY,10017
West Milford,US,NJ13,41.0932,-74.3761,West Milford Animal Shelter,NJ,7480
West Milford,US,NJ518,41.0932,-74.3761,Sheryls Den,NJ,7480
New York,US,NY644,40.7571,-73.9862,Northeast Boston Terrier Rescue Inc.,NY,10036
New York,US,NY679,40.7571,-73.9862,Eve's Sanctuary - Animal Rescue,NY,10036
Brooklyn,US,NY08,40.6743,-73.8746,Animal Care Centers of NYC - Brooklyn,NY,11208
Brooklyn,US,NY1359,40.6743,-73.8746,Cypress Feline Rescue,NY,11208
Vernon,US,NJ399,41.1992,-74.4843,Vernon Township Animal Control,NJ,7462
New York,US,NY479,40.7457,-73.98,Bideawee,NY,10016
Pompton Lakes,US,NJ519,40.9974,-74.2875,Close to Home Rescue & Sanctuary Inc,NJ,7442
Pompton Lakes,US,NJ755,40.9974,-74.2875,Ruff Rehab Inc,NJ,7442
Passaic,US,NJ36,40.858,-74.1301,Passaic Animal Shelter,NJ,7055
new york,US,NY160,40.7483,-73.9934,Test Inactive Shelter - No Adoptable Pets,NY,10001
New York,US,NY874,40.7483,-73.9934,New York City Feral Cat Initiative,NY,10001
New York,US,NY1270,40.7385,-73.985,PupStarz Rescue,NY,10010
Brooklyn,US,NY10,40.7118,-73.9538,BARC Shelter (Brooklyn Animal Resource Coalition),NY,11211
Brooklyn,US,NY803,40.7118,-73.9538,Empty Cages Collective,NY,11211
Brooklyn,US,NY922,40.7118,-73.9538,North Brooklyn Cats,NY,11211
Union City,US,NJ813,40.7678,-74.0295,Union City Feral Cat Committee,NJ,7087
Weehawken,US,NJ829,40.7678,-74.0295,The Lucky Cat Rescue,NJ,7087
Brooklyn,US,NY651,40.7021,-73.9429,Sugar Mutts Rescue,NY,11206
Secaucus,US,NJ352,40.7904,-74.0619,Happy Feet Cat Rescue,NJ,7094
Wayne,US,NJ26,40.9454,-74.2501,FOWA,NJ,7470
Wayne,US,NJ516,40.9454,-74.2501,Alan Purcell Wayne Township Animal Shelter,NJ,7470
Wayne,US,NJ651,40.9454,-74.2501,"Only Kindness, Inc.",NJ,7470
New York,US,NY93,40.7402,-73.9991,Eskies Online American Eskimo Dog Rescue,NY,10011
New York,US,NY1184,40.7402,-73.9991,Mr. Bones & Co.,NY,10011
New York,US,NY1192,40.7402,-73.9991,"Inky Blue Sea Companion Animal Rescue, Inc.",NY,10011
New York,US,NY1199,40.7402,-73.9991,Animal Lighthouse Rescue,NY,10011
New York,US,NY1248,40.7402,-73.9991,Pound Hounds Res-Q,NY,10011
New York,US,NY1008,40.726,-73.9811,Senior Pets NYC/Saving Older Beagles,NY,10009
Manhattan,US,NY835,40.726,-73.9811,Social Tees Animal Rescue Foundation,NY,10009
New York,US,NY1400,40.726,-73.9811,Fur Real,NY,10009
New York,US,NY262,40.7316,-73.9892,K9Kastle,NY,10003
New York,US,NY557,40.7316,-73.9892,Italian Greyhound Rescue Network-NYC/Long Island/NJ/Eastern PA,NY,10003
New York,US,NY1319,40.7316,-73.9892,Muddy Paws Rescue,NY,10003
Port Jervis,US,NY21,41.3757,-74.6712,Humane Society of Port Jervis/Deerpark Inc.,NY,12771
Riverdale,US,NJ309,40.9923,-74.308,P-U-R-R-S ...N' Pups Animal Rescue Team Inc.,NJ,7457
New York,US,NY139,40.7224,-73.9838,NY PET-I-CARE ADOPTION PROGRAM,NY,10002
New York,US,NY447,40.7224,-73.9838,Waggytail Rescue,NY,10002
New York,US,NY955,40.7224,-73.9838,"Project Pet, Inc.",NY,10002
Bloomingdale,US,NJ28,41.0125,-74.3321,Bloomingdale Regional Animal Shelter Society,NJ,7403
Bloomingdale,US,NJ723,41.0125,-74.3321,North Jersey Community Animal Shelter,NJ,7403
Clifton,US,NJ430,40.8704,-74.1719,Angels of Animals Inc.,NJ,7013
New York,US,NY1363,40.7333,-74.0053,RescueNYC,NY,10014
Clifton,US,NJ37,40.8583,-74.1642,Friends of the Clifton Animal Shelter,NJ,7015
Hoboken,US,NJ78,40.7446,-74.0333,Companion Animal Placement,NJ,7030
Hoboken,US,NJ674,40.7446,-74.0333,SNORT (Short Noses Only Rescue Team),NJ,7030
Hoboken,US,NJ863,40.7446,-74.0333,The Grayter Good Weimaraner Rescue,NJ,7030
Pompton Plains,US,NJ76,40.9652,-74.301,Pequannock Animal Shelter,NJ,7444
Brooklyn,US,NY1300,40.6806,-73.9504,Brooklyn Cat Farm,NY,11216
New York,US,NY114,40.7193,-74.0045,City Critters Inc.,NY,10013
New York,US,NY17,40.7193,-74.0045,Animal Haven,NY,10013
Little Falls,US,NJ120,40.8871,-74.2161,"S.T.A.R.T., Save The Animals Rescue Team",NJ,7424
Lyndhurst,US,NJ426,40.8093,-74.123,Elaines Foundation for Homeless Felines,NJ,7071
Lyndhurst,US,NJ95,40.8093,-74.123,Humane Society of Bergen County/Lost Pet Inc.,NJ,7071
Jersey City,US,NJ781,40.7478,-74.05,Final Hope Animal Rescue and Sanctuary,NJ,7307
Jersey City,US,NJ820,40.7478,-74.05,Hudson Haven Dog Rescue,NJ,7307
New York,US,NY374,40.7142,-74.0064,Place For Cats,NY,10150
New York,US,NY1286,40.7133,-74.0077,Shelter Chic,NY,10007
New York,US,NY1183,40.7091,-74.0041,Best Friends - New York,NY,10038
Brooklyn,US,NY505,40.6937,-73.9898,"DALMATIAN ADOPTION, INC.",NY,11201
Brooklyn,US,NY1073,40.6937,-73.9898,"Beastly Rescue, Inc.",NY,11201
Wayne,US,NJ297,40.9253,-74.2769,"Homeless Tails, Inc.",NJ,7474
Brooklyn,US,NY765,40.6959,-73.9934,Brooklyn Bridge Animal Welfare Coalition,NY,11202
New York,US,NY864,40.7107,-74.0156,Ready For Rescue,NY,10280
New York,US,NY1100,40.7107,-74.0156,AmsterDog,NY,10280
Brooklyn,US,NY1367,40.6635,-73.9546,Brooklyn's Finest Animal Clinic,NY,11225
Brooklyn,US,NY467,40.6823,-73.9808,Infinite Hope,NY,11217
Clinton,US,NY401,43.0515,-75.3872,Spring Farm CARES,NY,13323
Nutley,US,NJ838,40.8163,-74.1607,Daniel's Dream,NJ,7110
Butler,US,NJ08,40.9928,-74.3653,Tri-Boro Animal Welfare,NJ,7405
Kinnelon,US,NJ706,40.9928,-74.3653,Kinnelon Volunteer Animal Shelter,NJ,7405
Montclair,US,NJ209,40.843,-74.2013,Aunt Marys Dog House,NJ,7043
Jersey City,US,NJ587,40.72,-74.0472,Rescue The Cats,NJ,7302
Jersey City,US,NJ708,40.72,-74.0472,See Spot Rescued,NJ,7302
Jersey City,US,NJ871,40.72,-74.0472,Jersey Tails,NJ,7302
Lincoln Park,US,NJ899,40.9223,-74.2949,"Brick City Rescue, Inc",NJ,7035
Brooklyn,US,NY947,40.6675,-73.9837,Brooklyn Animal Action,NY,11215
Brooklyn,US,NY1072,40.6675,-73.9837,Badass Brooklyn Animal Rescue,NY,11215
Brooklyn,US,NY729,40.646,-73.9569,Barbara the Cat Lady,NY,11226
Brooklyn,US,NY1278,40.646,-73.9569,FAT Cats,NY,11226
Brooklyn,US,NY773,40.6795,-74.0031,Red Hook Dog Rescue,NY,11231
Brooklyn,US,NY1140,40.6795,-74.0031,The Sato Project,NY,11231
Wantage,US,NJ144,41.2147,-74.6003,Wantage Pound,NJ,7461
Wantage,US,NJ861,41.2147,-74.6003,Safe and Sound Animal Rescue,NJ,7461
Brooklyn,US,NY177,40.6195,-73.9243,Kings Highway Cat Rescue,NY,11234
Jersey City,US,NJ35,40.7281,-74.0781,Hudson County Animal League (HCAL),NJ,7303
Jersey City,US,NJ638,40.7281,-74.0781,JerseyCats,NJ,7303
Belleville,US,NJ868,40.794,-74.1633,R and M Rockin' Rescues,NJ,7109
Jersey City,US,NJ400,40.7162,-74.0728,Companion Animal Trust,NJ,7304
Bloomfield,US,NJ270,40.8073,-74.1885,A Purrfect World,NJ,7003
Bloomfield,US,NJ517,40.8073,-74.1885,Bloomfield Animal Shelter  - John A. Bukowski Shelter for Animals,NJ,7003
Bloomfield,US,NJ694,40.8073,-74.1885,daps animals,NJ,7003
Bloomfield,US,NJ753,40.8073,-74.1885,Pitty Rescue,NJ,7003
Bloomfield,US,NJ901,40.8073,-74.1885,Forgotten Tails Inc,NJ,7003
Oak Ridge,US,NJ113,41.0555,-74.4798,Second Chance Pet Adoption League,NJ,7438
Oak Ridge,US,NJ361,41.0555,-74.4798,GSP Rescue of NJ,NJ,7438
Montclair,US,NJ07,40.8118,-74.2178,PAWS - Montclair,NJ,7042
Montclair,US,NJ150,40.8118,-74.2178,Cameron Animal Hospital (not a shelter),NJ,7042
Montclair,US,NJ589,40.8118,-74.2178,Montclair Township Animal Shelter,NJ,7042
Montclair,US,NJ592,40.8118,-74.2178,Doodle Rescue Collective Inc.,NJ,7042
Montclair,US,NJ741,40.8118,-74.2178,FIVER Cats,NJ,7042
Brooklyn,US,NY962,40.6011,-73.945,Adopt-A-Buddy,NY,11229
Hamburg,US,NJ895,41.1473,-74.5801,Bully Rescue Warriors,NJ,7419
Jersey City,US,NJ261,40.7015,-74.0892,Liberty Humane Society,NJ,7305
Caldwell,US,NJ758,40.8523,-74.2773,Rescue Haven Foundation,NJ,7006
West Caldwell,US,NJ101,40.8397,-74.2769,"Orphaned Pets, Inc.",NJ,7007
West Caldwell,US,NJ883,40.8397,-74.2769,Rosemaries Rescue Ranch,NJ,7007
Brooklyn,US,NY1252,40.5844,-73.9525,AMA Animal Rescue,NY,11235
Brooklyn,US,NY1299,40.5844,-73.9525,"Animals Are Forever, Inc",NY,11235
Brooklyn,US,NY1297,40.5988,-73.9735,Rescue City,NY,11223
Glenfield,US,NY1357,43.7108,-75.4029,"North Country Pet Adoption Services, inc.",NY,13343
Montville,US,NJ181,40.9095,-74.3683,Montville Animal Shelter,NJ,7045
East Orange,US,NJ849,40.7727,-74.2088,Miss Pats Cats,NJ,7017
Brooklyn,US,NY1023,40.6177,-74.0123,Anarchy Animal Rescue,NY,11228
Brooklyn,US,NY113,40.6257,-74.0312,Muffin's Pet Connection,NY,11209
Brooklyn,US,NY794,40.6257,-74.0312,Tavi & Friends,NY,11209
Brooklyn,US,NY06,40.6014,-73.9976,Mighty Mutts,NY,11214
Potsdam,US,NY395,44.6741,-74.9839,Potsdam Humane Society Inc.,NY,13676
West Orange,US,NJ239,40.7865,-74.2555,Bichon Frise Rescue of NNJ Inc.,NJ,7052
West Orange,US,NJ59,40.7865,-74.2555,West Orange Animal Welfare League,NJ,7052
West Orange,US,NJ826,40.7865,-74.2555,West Orange TNVR,NJ,7052
West Orange,US,NJ887,40.7865,-74.2555,Meows Kitty Cat Rescue Inc.,NJ,7052
Bayonne,US,NJ600,40.6634,-74.1203,Bayonne Feral Cat Foundation,NJ,7002
Staten Island,US,NY1216,40.6296,-74.0949,"Victory 4 the Voiceless Animal Rescue, Inc.",NY,10301
South Orange,US,NJ727,40.748,-74.2594,Morgan Le Fay Cat Rescue,NJ,7079
Sidney,US,NY237,42.3083,-75.3926,Delaware Valley Humane Society,NY,13838
Livingston,US,NJ715,40.7893,-74.3216,"Livingston, NJ Animal Shelter",NJ,7039
East Hanover,US,NJ53,40.8203,-74.3633,Mt. Pleasant Animal Shelter,NJ,7936
East Hanover,US,NJ562,40.8203,-74.3633,"Purrfect Pals, Inc.",NJ,7936
Staten Island,US,NY920,40.6306,-74.1374,Louie's Legacy Animal Rescue,NY,10302
Staten Island,US,NY939,40.6306,-74.1374,"Tails of Love Animal Rescue, Inc.",NY,10302
Milford,US,PA90,41.3186,-74.858,Pike County Humane Society Inc,PA,18337
Parsippany,US,NJ304,40.8595,-74.4189,Parsippany Animal Control & Animal Shelter,NJ,7054
Parsippany,US,NJ556,40.8595,-74.4189,Feeding The Forgotten,NJ,7054
Parsippany,US,NJ93,40.8595,-74.4189,Labradors + Friends,NJ,7054
Parsippany,US,NJ854,40.8595,-74.4189,Wise Animal Rescue,NJ,7054
Hillside,US,NJ725,40.6952,-74.2281,Willy's Wabbits,NJ,7205
Denville,US,NJ766,40.8924,-74.4829,Home Sweet Home Animal Rescue,NJ,7834
Sparta,US,NJ133,41.0359,-74.6327,One Step Closer Animal Rescue (O.S.C.A.R.),NJ,7871
Massena,US,NY167,44.9207,-74.9068,Massena Humane Society,NY,13662
Staten Island,US,NY190,40.6061,-74.1452,P.L.U.T.O. (Pet Lovers United Together as One),NY,10314
Staten Island,US,NY823,40.6061,-74.1452,Staten Island Hope Animal Rescue,NY,10314
Rockaway,US,NJ376,40.9131,-74.5138,Eleventh Hour Rescue,NJ,7866
Rockaway,US,NJ441,40.9131,-74.5138,Scottish Terrier Club of Greater New York Rescue,NJ,7866
Rockaway,US,NJ525,40.9131,-74.5138,S.O.S. PETS Inc.,NJ,7866
Millburn,US,NJ318,40.7235,-74.2992,Garden State German Shepherd Rescue,NJ,7041
Millburn,US,NJ811,40.7235,-74.2992,Sedona Shepherd Sanctuary,NJ,7041
Norwich,US,NY867,42.5347,-75.5244,Little Mews Rescue,NY,13815
Norwich,US,NY1384,42.5347,-75.5244,Chenango SPCA,NY,13815
Lafayette,US,NJ117,41.1359,-74.768,Father John's Animal House,NJ,7826
Morris Plains,US,NJ853,40.8412,-74.4773,Green Mile Rescue,NJ,7950
Lake Hopatcong,US,NJ152,40.9615,-74.6142,Jefferson Township Municipal Pound,NJ,7849
Linden,US,NJ153,40.6359,-74.2568,"Friends of Linden Animal Shelter, Inc.",NJ,7036
Linden,US,NJ451,40.6359,-74.2568,All Star Pet Rescue,NJ,7036
Madison,US,NJ04,40.7587,-74.4181,St. Huberts Animal Welfare Center- Madison,NJ,7940
Afton,US,NY311,42.2186,-75.4752,Underdogs,NY,13730
Cranford,US,NJ70,40.6554,-74.3052,"Best Friend Dog and Animal Adoption, Inc.",NJ,7016
Cranford,US,NJ684,40.6554,-74.3052,TravelingPaws,NJ,7016
Oneida,US,NY593,43.0874,-75.6581,"Rescue Me K9 Rescue, Inc.",NY,13421
Morristown,US,NJ346,40.7971,-74.4853,Smitten By Kittens,NJ,7960
Morristown,US,NJ703,40.7971,-74.4853,911 Dog and Cat Rescue,NJ,7960
Morristown,US,NJ859,40.7971,-74.4853,Friends of Sochi Dogs,NJ,7960
Staten Island,US,NY34,40.5425,-74.1774,Staten Island Council for Animal Welfare,NY,10312
Staten Island ,US,NY1397,40.5425,-74.1774,Lost and Found Pets Staten Island ,NY,10312
Mountainside,US,NJ765,40.6779,-74.3573,Brendan's Meadows Rescue,NJ,7092
Mine Hill,US,NJ349,40.878,-74.5939,Hodes Veterinary Group,NJ,7803
Westfield,US,NJ353,40.6589,-74.3478,Cause 4 Paws Inc.,NJ,7091
Randolph,US,NJ325,40.848,-74.5728,All Our Orphans,NJ,7869
Randolph,US,NJ436,40.848,-74.5728,Scales and Tails Exotic Pet Rescue,NJ,7869
Randolph,US,NJ630,40.848,-74.5728,Furever Home Dog Rescue,NJ,7869
Westfield,US,NJ384,40.6485,-74.3454,"Homeless Animal Rescue Team, Inc.",NJ,7090
Westfield,US,NJ900,40.6485,-74.3454,Pop-up Paws,NJ,7090
Stanhope,US,NJ123,40.9505,-74.6922,BARKS,NJ,7874
Atlantic Highlands,US,NJ365,40.4088,-74.0336,Rabbit Haven by the Sea,NJ,7716
Colonia,US,NJ128,40.5937,-74.3162,Angel Pets Animal Welfare Society Inc.,NJ,7067
Ledgewood,US,NJ860,40.8806,-74.6567,St. Huberts - Noah's Ark,NJ,7852
Fanwood,US,NJ27,40.6418,-74.386,New Jersey Schnauzer Rescue Network Inc,NJ,7023
Woodbridge,US,NJ254,40.558,-74.2829,Woodbridge Township Animal Control,NJ,7095
Woodbridge,US,NJ775,40.558,-74.2829,Lonely Grey Rescue,NJ,7095
Woodbridge,US,NJ787,40.558,-74.2829,Holisticat Rescue and Rehabilitation,NJ,7095
Berkeley Heights,US,NJ264,40.6757,-74.4353,S.A.R.A. Inc.,NJ,7922
Berkeley Heights,US,NJ652,40.6757,-74.4353,Home For Good Dog Rescue,NJ,7922
Gouverneur,US,NY1126,44.337,-75.4673,"Friends4PoundPaws, Inc.",NY,13642
Succasunna,US,NJ742,40.8534,-74.6539,Cold Nose Warm Heart Dog Rescue,NJ,7876
Staten Island,US,NY1394,40.5084,-74.2423,Mama Chris Animal Rescue Inc.,NY,10307
Honesdale,US,PA59,41.5673,-75.2645,Dessin Animal Shelter,PA,18431
Perth Amboy,US,NJ159,40.5194,-74.2775,Perth Amboy Animal Shelter,NJ,8861
Mendham,US,NJ12,40.7841,-74.6022,Randolph Regional Animal Shelter,NJ,7945
Canastota,US,NY79,43.0812,-75.7658,Wanderers' Rest Humane Association,NY,13032
New Monmouth,US,NJ136,40.397,-74.1157,Mostly Shepherds Rescue,NJ,7748
Plainfield,US,NJ458,40.6229,-74.4315,Lawyers In Defense of Animals (LIDA),NJ,7060
Spring Lake,US,NJ220,40.423,-74.1762,Rescue Ridge,NJ,7730
Hazlet,US,NJ561,40.423,-74.1762,"Fur Friends In Need, Inc.",NJ,7730
Hazlet,US,NJ603,40.423,-74.1762,East Coast Maine Coon Rescue,NJ,7730
Oceanport,US,NJ699,40.3148,-74.0168,Pick Your Paw Animal Rescue,NJ,7757
Red Bank,US,NJ39,40.3554,-74.0795,Pet Adoption Network,NJ,7701
Red Bank,US,NJ735,40.3554,-74.0795,Home Free Animal Rescue,NJ,7701
Flanders,US,NJ607,40.8456,-74.6989,Mt. Olive TNR Project,NJ,7836
Flanders,US,NJ839,40.8456,-74.6989,St. Huberts EAC,NJ,7836
Budd Lake,US,NJ431,40.8741,-74.7409,"North Jersey Guinea Pig and Hamster Rescue, Inc.",NJ,7828
South Plainfield,US,NJ421,40.5811,-74.4147,Forever Families for Felines,NJ,7080
South Plainfield,US,NJ685,40.5811,-74.4147,Happy Paws Rescue Inc.,NJ,7080
South Plainfield,US,NJ769,40.5811,-74.4147,Jersey Girls Animal Rescue,NJ,7080
Plainfield,US,NJ22,40.6049,-74.4461,Plainfield Area Humane Society,NJ,7063
North Plainfield,US,NJ381,40.6049,-74.4461,Whiskers and Wags-4-Adoption,NJ,7063
Basking Ridge,US,NJ481,40.6931,-74.5587,Friends of Lord Stirling Stable,NJ,7920
Basking Ridge,US,NJ697,40.6931,-74.5587,Bernards Township,NJ,7920
Warren,US,NJ235,40.6305,-74.5072,Rawhide Rescue,NJ,7059
Warren,US,NJ327,40.6305,-74.5072,Lifeline Animal Rescue Inc.,NJ,7059
Eatontown,US,NJ648,40.3043,-74.0709,Luv Furever Animal Rescue - Eatontown,NJ,7724
Eatontown,US,NJ840,40.3043,-74.0709,MEOW Inc,NJ,7724
Thompson,US,PA932,41.8635,-75.5157,Ruff Dog Rescue North East,PA,18465
Oakhurst,US,NJ259,40.2661,-74.0186,Wag On Inn Rescue,NJ,7755
Oakhurst,US,NJ851,40.2661,-74.0186,Tails of Hope,NJ,7755
Matawan,US,NJ141,40.4071,-74.2334,Husky House,NJ,7747
Matawan,US,NJ810,40.4071,-74.2334,Purrfect Cat Catchers,NJ,7747
Parlin,US,NJ803,40.4618,-74.3105,Coalition of Advocates for Shelter Animals,NJ,8859
Edison,US,NJ593,40.5136,-74.3961,Edison Municipal Animal Shelter,NJ,8817
Sayreville,US,NJ655,40.4662,-74.3483,Sammy's Hope,NJ,8872
Peapack,US,NJ82,40.7167,-74.6569,People for Unwanted Feline Friends,NJ,7977
Middlesex,US,NJ362,40.5754,-74.5018,New Jersey Boxer Rescue Inc.,NJ,8846
Middlesex,US,NJ502,40.5754,-74.5018,Save Us Dog Rescue,NJ,8846
Middlesex,US,NJ768,40.5754,-74.5018,"Island Puppy Rescue, Inc.",NJ,8846
Middlesex,US,NJ797,40.5754,-74.5018,Paws for Peace,NJ,8846
Asbury Park,US,NJ398,40.2351,-74.0299,Three Little Kittens Inc.,NJ,7712
Ocean,US,NJ867,40.2351,-74.0299,To The Rescue - An Animal Lifesaving Corporation,NJ,7712
New Woodstock,US,NY743,42.8482,-75.863,Wayward Paws Inc.,NY,13122
Union Dale,US,PA981,41.7167,-75.4929,It's Ruff Without A Roof Rescue,PA,18470
Highland Park,US,NJ523,40.5,-74.4251,Cattitude Inc,NJ,8904
Long Valley,US,NJ689,40.7979,-74.7808,A Hoppy Tail,NJ,7853
Greene,US,NY793,42.3308,-75.7704,Every Dogs Dream,NY,13778
Blairstown,US,NJ115,40.9808,-74.9737,American Maltese Association Rescue,NJ,7825
Blairstown,US,NJ414,40.9808,-74.9737,"Safe Hounds Beagle Rescue, Inc.",NJ,7825
Blairstown,US,NY945,40.9808,-74.9737,A Helping Wing Parrot Rescue,NJ,7825
Hackettstown,US,NJ97,40.8442,-74.849,Pet Adoption League,NJ,7840
Pottersville,US,NJ786,40.7175,-74.7229,BullMastiff Rescuers,NJ,7979
Old Bridge,US,NJ331,40.3986,-74.3307,C.A.R.E. Companion Animal Rescue & Education,NJ,8857
Old Bridge,US,NJ728,40.3986,-74.3307,Happy Homes Animal Rescue,NJ,8857
Tinton Falls,US,NJ02,40.2098,-74.0529,AHS-Tinton Falls,NJ,7753
New Brunswick ,US,NJ880,40.4861,-74.4522,Hugs and Hope For Homeless Pets,NJ,8903
Lake Ariel,US,PA362,41.4536,-75.384,Scranton Area Advocates For DAWGS,PA,18436
Somerset,US,NJ350,40.5029,-74.4984,Paws and Whiskers,NJ,8873
Somerset,US,NJ440,40.5029,-74.4984,HOMELESS HEARTS DOG RESCUE,NJ,8873
East Brunswick,US,NJ16,40.4282,-74.4057,Animal Rescue Force,NJ,8816
East Brunswick,US,NJ538,40.4282,-74.4057,Animal Assistance,NJ,8816
East Brunswick,US,NJ639,40.4282,-74.4057,Karma Cat + Zen Dog Rescue Society,NJ,8816
East Brunswick,US,NJ643,40.4282,-74.4057,Ray of Hope,NJ,8816
Bridgewater,US,NJ32,40.5906,-74.6185,Somerset Regional Animal Shelter,NJ,8807
Bridgewater,US,NJ507,40.5906,-74.6185,Lost Paws Animal Rescue,NJ,8807
Bridgewater,US,NJ521,40.5906,-74.6185,Shelter Survivors,NJ,8807
Bridgewater,US,NJ717,40.5906,-74.6185,Penny Lane Dog Adoption,NJ,8807
Bridgewater,US,NJ847,40.5906,-74.6185,Hunterdon Somerset Animal Rescue Center,NJ,8807
Bridgewater,US,NJ852,40.5906,-74.6185,Caring Canine Connections,NJ,8807
Carbondale,US,PA782,41.5757,-75.4976,Northeast Pa. (NEPA) Animal Adoption Network Inc.,PA,18407
Greenfield Township,US,PA925,41.5757,-75.4976,Purple Pawz NEPA Animal Adoption,PA,18407
Newfoundland,US,PA560,41.3069,-75.3218,Lovable Mutts Adoption Center (aka PDR),PA,18445
Spotswood,US,NJ617,40.3869,-74.3921,"All Critters Rescue, Inc.",NJ,8884
Manlius,US,NY740,42.9964,-75.9773,DGI Paws,NY,13104
Raritan,US,NJ690,40.5712,-74.638,"CAPIC, Cat Adoption & Pet Information Center",NJ,8869
Canadensis,US,PA980,41.1922,-75.2521,Pocono Greyhound Adoption,PA,18325
Branchburg,US,NJ09,40.5599,-74.643,St. Hubert's Animal Welfare Center - North Branch,NJ,8876
Manalapan,US,NJ405,40.3084,-74.3254,Hope For Animals,NJ,7726
Manalapan,US,NJ552,40.3084,-74.3254,Cuddly Creatures Inc. Animal Rescue and Adoptions,NJ,7726
Manalapan,US,NJ554,40.3084,-74.3254,Italian Greyhound Rescue Network-NJ/Eastern PA,NJ,7726
Cresco,US,PA850,41.1452,-75.2525,Twenty Paws Rescue,PA,18326
Watertown,US,NY33,43.9731,-75.9128,Jefferson County S.P.C.A.,NY,13601
Freehold,US,NJ05,40.2478,-74.2761,Adopt-a-Pet,NJ,7728
Freehold,US,NJ747,40.2478,-74.2761,"All Fur Love Animal Rescue, Inc.",NJ,7728
Monroe,US,NJ434,40.3466,-74.443,Cane Corso Rescue,NJ,8831
Monroe Twp,US,NJ751,40.3466,-74.443,Rescue Without Borders,NJ,8831
Whitehouse Station,US,NJ137,40.595,-74.7671,Adopt A Setter,NJ,8889
Whitehouse,US,NJ704,40.595,-74.7671,Friends of Animal Control Solutions,NJ,8889
Whitehouse Station,US,NJ878,40.595,-74.7671,The Chicken Refuge,NJ,8889
East Stroudsburg,US,PA584,41.0145,-75.197,Animals Cant Talk Rescue and Adoption Inc.,PA,18301
Stroudsburg,US,PA681,41.0145,-75.197,Pocono Animal Welfare Society,PA,18301
Binghamton,US,NY966,42.144,-75.8838,Pibbles & More Animal Rescue,NY,13901
Belle Mead,US,NJ210,40.4675,-74.6299,Carols Cats,NJ,8502
Dewitt,US,NY780,43.0402,-76.0776,City of Syracuse,NY,13214
Dewitt,US,NY870,43.0402,-76.0776,Helping Hounds Dog Rescue Inc.,NY,13214
Washington,US,NJ247,40.7612,-74.9772,Collie and Ibizan Rescue of Central New Jersey,NJ,7882
Washington,US,NJ495,40.7612,-74.9772,Mid-Atlantic Basset Hound Rescue,NJ,7882
Jamesville,US,NY1305,42.9933,-76.082,Second Chance Canine Adoption Shelter,NY,13078
Howell,US,NJ339,40.1477,-74.213,"Purrfect Feline Friends, Inc.",NJ,7731
Howell,US,NJ675,40.1477,-74.213,Horse Rescue United,NJ,7731
Howell,US,NJ879,40.1477,-74.213,Ney Ney Cat Rescue,NJ,7731
Stroudsburg,US,PA406,40.9899,-75.2079,Camp Papillon Animal Shelter,PA,18360
Stroudsburg,US,PA539,40.9899,-75.2079,Animal Welfare Society of Monroe,PA,18360
Stroudsburg,US,PA550,40.9899,-75.2079,For the Love of the Underdog Inc.,PA,18360
Stroudsburg,US,PA84,40.9899,-75.2079,Waggin' Tails Pet Rescue,PA,18360
Belvidere,US,NJ357,40.8265,-75.0572,Communities Altering The Strays (CATS),NJ,7823
Syracuse,US,NY1296,43.0681,-76.1125,Voice4TheVoiceless,NY,13206
Binghamton,US,NY398,42.0829,-75.9031,Lifeline Fosters Northeast,NY,13903
Binghamton,US,NY71,42.0829,-75.9031,The Humane Society,NY,13903
Kemblesville,US,PA112,41.0951,-75.3268,Mid Atlantic Great Dane Rescue League PA/DE/NJ/NY,PA,18370
Binghamton,US,NY106,42.1139,-75.9289,Broome County Dog Shelter,NY,13905
Binghamton,US,NY122,42.1139,-75.9289,SPEAK Animal Hospital & Cat Sanctuary,NY,13905
Dickson City,US,PA388,41.4684,-75.604,Adopt a boxer rescue,PA,18447
Syracuse,US,NY1399,43.0352,-76.127,Hunter Hollow Bunny Bed and Breakfast,NY,13210
Cream Ridge,US,NJ845,40.2099,-74.3635,It's a Dogs Life Rescue of NJ,NJ,8514
Syracuse,US,NY392,43.0499,-76.1339,CNY Cat Coalition,NY,13217
Syracuse,US,NY512,43.0981,-76.137,Central New York SPCA,NY,13211
Millstone,US,NJ462,40.2188,-74.3885,K-9s In Need,NJ,8535
Brewerton,US,NY225,43.2216,-76.1433,"Chow Chow Rescue Of Central New York, Inc.",NY,13029
Brewerton,US,NY967,43.2216,-76.1433,Karols Kats Cat Adoption,NY,13029
Brick,US,NJ64,40.0396,-74.1254,Jersey Shore Animal Center,NJ,8723
Brick,US,NJ698,40.0396,-74.1254,American Rescue Dog,NJ,8723
Brick,US,NJ754,40.0396,-74.1254,Rebeccas Rescues,NJ,8723
Hightstown,US,NJ14,40.3759,-74.6152,"A.F.E.W. - Animal Friends for Education and Welfare, Inc.",NJ,8528
Richland,US,NY583,43.5536,-76.1271,United Friends of Homeless Animals,NY,13142
Clinton,US,NJ283,40.6261,-74.914,Rogers Rescues,NJ,8809
Clinton,US,NJ359,40.6261,-74.914,Safe Haven Rabbit Rescue Inc.,NJ,8809
Hop Bottom,US,PA714,41.7054,-75.7667,Laura's Hope Rescue,PA,18824
Bartonsville,US,PA753,41.0108,-75.293,Hope for Hannah Rescue Inc.,PA,18321
Plainsboro,US,NJ749,40.3339,-74.5793,Scarlet Paws Animal Welfare Network,NJ,8536
Jackson,US,NJ373,40.1183,-74.2776,The Volunteer Auxiliary For Animal Shelters Inc.,NJ,8527
Jackson,US,NJ439,40.1183,-74.2776,Howling Woods Farm,NJ,8527
Jackson,US,NJ62,40.1183,-74.2776,Ocean County Animal Facility - North,NJ,8527
Jackson,US,NJ656,40.1183,-74.2776,Oodles of Doodles Rescue Collective,NJ,8527
Jackson ,US,NJ833,40.1183,-74.2776,Pitties and Pals Rescue,NJ,8527
Jackson,US,NJ888,40.1183,-74.2776,Wilma's Orphans Inc,NJ,8527
Skillman,US,NJ143,40.4193,-74.6933,"SAVE, A Friend to Homeless Animals",NJ,8558
Clay,US,NY1102,43.1717,-76.1687,Recycle-A-Bull Bully Breed Rescue,NY,13041
Clay,US,NY1104,43.1717,-76.1687,Furever After Rescue,NY,13041
Stewartsville,US,NJ356,40.745,-75.0622,Feline Urban Rescue And Rehab Inc.,NJ,8886
"Stewartsville,",US,NJ619,40.745,-75.0622,Gateway Regional Rescue NJ,NJ,8886
Broadway,US,NJ11,40.7319,-75.0519,Common Sense for Animals,NJ,8808
Liverpool,US,NY39,43.1093,-76.189,KittyCorner of CNY Inc.,NY,13088
Scranton,US,PA972,41.4277,-75.6477,Friends With Paws Pet Rescue,PA,18509
Montrose,US,PA803,41.8327,-75.8769,True Friends Animal Welfare Center,PA,18801
Hightstown,US,NJ825,40.2658,-74.5315,For The Love of Birds,NJ,8520
Hightstown,US,NJ864,40.2658,-74.5315,All God's Creatures Inc.,NJ,8520
Roosevelt,US,NJ568,40.22,-74.4736,All 4 The Dogs Rescue,NJ,8555
Flemington,US,NJ202,40.5145,-74.8514,Watchung Mountain Poodle Club Rescue,NJ,8822
Flemington,US,NJ785,40.5145,-74.8514,FurryTail Endings Canine Rescue,NJ,8822
Maine,US,NY1364,42.2498,-76.0537,Willow's Wings,NY,13802
Scranton,US,PA697,41.4085,-75.6457,"One Life To Live Pet Rescue and Adoption, Inc.",PA,18510
Clarks Summit,US,PA164,41.4891,-75.7052,Humane Society of Lackawanna County DBA Griffin Pond Animal Shelter,PA,18411
Syracuse,US,NY1224,43.0409,-76.2212,Fairmount Animal Hospital,NY,13219
Gouldsboro,US,PA1027,41.2327,-75.5464,"Roxie's Place, Inc.",PA,18424
West Windsor,US,NJ142,40.2954,-74.612,APAW Animal Placement Agency of the Windsors,NJ,8550
Pittstown,US,NJ590,40.5859,-74.9688,S&L Animal Rescue,NJ,8867
Toms River,US,NJ176,39.9786,-74.1547,Toms River Township Animal Facility,NJ,8753
Cape May,US,NJ407,39.9786,-74.1547,Friends of Rocky Mount. Animals (F.O.R.Animals),NJ,8753
Toms River,US,NJ444,39.9786,-74.1547,S.A.V.E. Shore Animal Volunteer Enterprise,NJ,8753
Toms River,US,NJ691,39.9786,-74.1547,Big East Akita Rescue,NJ,8753
Toms River,US,NJ709,39.9786,-74.1547,Calling All Cats Rescues,NJ,8753
Toms River,US,NJ761,39.9786,-74.1547,East Coast Paws n Claws,NJ,8753
Scranton,US,PA904,41.3909,-75.6662,Northeast PA Pet Fund & Rescue,PA,18505
Syracuse,US,NY861,43.0764,-76.2368,"Sunshine Horses, Inc.",NY,13209
Homer,US,NY701,42.6642,-76.1926,Country Acres Animal Shelter,NY,13077
Homer,US,NY786,42.6642,-76.1926,Hubbards Hounds Dog Rescue,NY,13077
Cortland,US,NY192,42.5927,-76.1859,Cortland Community SPCA,NY,13045
Cortland,US,NY602,42.5927,-76.1859,CNY SNAP,NY,13045
Toms River,US,NJ302,39.9963,-74.2225,Puppy Love Pet Rescue,NJ,8755
Ringoes,US,NJ347,40.4431,-74.8415,Tabby's Place,NJ,8551
Manchester,US,NJ242,40.014,-74.2775,Animal Relief Foundation,NJ,8733
Lakehurst,US,NJ802,40.014,-74.2775,Jersey Shore Animal Foundation,NJ,8733
Camillus,US,NY1311,43.0416,-76.2826,Renate's Fosters,NY,13031
Pine Beach,US,NJ473,39.9345,-74.1672,ABC Inc.,NJ,8741
Effort,US,PA759,40.9843,-75.4303,Kindred Spirits,PA,18330
Milford,US,NJ332,40.5838,-75.0517,NJ Puppy Rescue Inc.,NJ,8848
Milford,US,NJ573,40.5838,-75.0517,Addison Rescue,NJ,8848
Phillipsburg,US,NJ457,40.6911,-75.1688,Tri State Weimaraner Rescue Inc,NJ,8865
Phillipsburg,US,NJ606,40.6911,-75.1688,Crossed Paws Rescue,NJ,8865
Toms River,US,NJ784,39.9694,-74.2526,Lost Dog Search and Rescue,NJ,8757
Baldwinsville,US,NY712,43.1605,-76.3122,National Brittany Rescue & Adoption Network,NY,13027
Pennington,US,NJ48,40.3309,-74.7854,Animal Allies,NJ,8534
Hamilton,US,NJ782,40.2258,-74.6583,Its A Ruff Life Rescue,NJ,8690
Frenchtown,US,NJ738,40.5191,-75.0234,Another Chance 4 Dogs,NJ,8825
Hamilton,US,NJ83,40.2392,-74.6954,Pet Rescue of Mercer,NJ,8619
Marcellus,US,NY660,42.9835,-76.3386,Lake Country Veterinary Clinic,NY,13108
Blakeslee,US,PA437,41.0987,-75.5991,Happy Dog Rescue (hdrescue2@gmail.com),PA,18610
Easton,US,PA08,40.6864,-75.2411,The Center for Animal Health & Welfare,PA,18042
Ewing,US,NJ776,40.2537,-74.7629,ARF of Mercer,NJ,8638
Hamilton,US,NJ276,40.1832,-74.6729,"Animals In Distress, Inc.",NJ,8620
Cream Ridge,US,NJ86,40.0696,-74.521,Kind Heart Rescue,NJ,8533
Lambertville,US,NJ290,40.3747,-74.9276,Animal Alliance,NJ,8530
Lambertville,US,NJ748,40.3747,-74.9276,Lambertville Animal Welfare,NJ,8530
Lambertville,US,NJ897,40.3747,-74.9276,Ava's Rescue,NJ,8530
Trenton,US,NJ43,40.2253,-74.7445,Trenton Animal Shelter,NJ,8609
Whiting,US,NJ642,39.9459,-74.3526,Rescue Me - Yorkie Rescue,NJ,8759
Whiting,US,NJ857,39.9459,-74.3526,Jonah's Ark Animal Rescue,NJ,8759
Trenton,US,NJ736,40.2405,-74.7807,Trenton Cats Rescue,NJ,8618
Ewing,US,NJ620,40.2677,-74.8209,EASEL,NJ,8628
Fulton,US,NY1120,43.3237,-76.4087,Gertie's Small Dog Rescue,NY,13069
Forked River,US,NJ215,39.8392,-74.199,Pet Agree Rescue of New Jersey,NJ,8731
Forked River,US,NJ03,39.8392,-74.199,Popcorn Park / AHS-Forked River,NJ,8731
Forked River,US,NJ760,39.8392,-74.199,Bridges To Safety,NJ,8731
Lanoka Harbor,US,NJ827,39.8392,-74.199,Fetch Me A Home Pet Rescue,NJ,8734
Freeville,US,NY1218,42.5016,-76.3503,Theres Hope Dog Rescue,NY,13068
Bath,US,PA944,40.7529,-75.3911,"Fureverhomes Doberman Rescue, Inc.",PA,18014
Bordentown,US,NJ503,40.1385,-74.7055,Bordentown City Cats,NJ,8505
Waretown,US,NJ711,39.8019,-74.1959,Love Pups Pet Rescue,NJ,8758
Point Pleasant,US,PA734,40.4225,-75.0667,Lulu's Rescue,PA,18950
New Hope,US,PA631,40.3563,-74.9911,Focus on Homeless Animals,PA,18938
New Hope,US,PA86,40.3563,-74.9911,Bucks County SPCA Lahaska,PA,18938
Moravia,US,NY1398,42.7102,-76.4182,The Home Stretch Dog Haven,NY,13118
Morrisville,US,PA07,40.2153,-74.8283,Dachshund Rescue of Bucks County & NJ,PA,19067
Yardley,US,PA771,40.2153,-74.8283,"Beagle Rescue League, Inc.",PA,19067
Yardley,US,PA793,40.2153,-74.8283,Four the Paws,PA,19067
Yardley,US,PA1025,40.2153,-74.8283,Joyce's Voice for Cats,PA,19067
Ithaca,US,NY591,42.3692,-76.3552,Cayuga Dog Rescue,NY,14817
Oswego,US,NY212,43.4463,-76.4981,Oswego County Humane Society Inc.,NY,13126
Oswego,US,NY46,43.4463,-76.4981,Oswego Animal Shelter,NY,13126
Port Treverton,US,PA425,41.275,-75.8909,Far Point Collie Rescue,PA,18704
Fairless Hills,US,PA912,40.1747,-74.851,The Shelter Animal Project,PA,19030
Newtown,US,PA160,40.2441,-74.9443,American Bulldog Rescue,PA,18940
Newtown,US,PA773,40.2441,-74.9443,Silver Lake Animal Rescue,PA,18940
Barnegat,US,NJ882,39.7587,-74.238,Pound Dog Found Dog Rescue,NJ,8005
Browns Mills,US,NJ647,39.9649,-74.5694,Ark of Promise Rescue,NJ,8015
Browns Mills,US,NJ808,39.9649,-74.5694,Sammi's Voice Pit Bull Rescue,NJ,8015
Wilkes Barre,US,PA182,41.2348,-75.8885,SPCA of Luzerne County,PA,18702
Florence,US,NJ654,40.1128,-74.8016,Helping All Little Things,NJ,8518
Dallas,US,PA700,41.3333,-75.9652,Blue Chip Farm,PA,18612
Bethlehem,US,PA648,40.6056,-75.3831,Lehigh Absolutely Purrfect,PA,18015
Lehigh Valley,US,PA456,40.6425,-75.4325,Harnessed to Hope Northern Breed Rescue,PA,18002
Penndel,US,PA188,40.1747,-74.9229,Bingos Foundation,PA,19047
Ithaca,US,NY132,42.4486,-76.486,SPCA of Tompkins County,NY,14850
Ithaca,US,NY1197,42.4486,-76.486,Browncoat Cat Rescue,NY,14850
Auburn,US,NY91,42.9257,-76.5655,Finger Lakes SPCA of Central New York,NY,13021
Catasauqua,US,PA999,40.6558,-75.47,Outcast Rescue,PA,18032
Furlong,US,PA183,40.2902,-75.0795,Save The Cats Inc.,PA,18925
Furlong,US,PA779,40.2902,-75.0795,Dutch Country Animal Rescue - PA,PA,18925
Walnutport,US,PA508,40.7599,-75.5693,Furry Feet Rescue,PA,18088
Manahawkin,US,NJ417,39.7081,-74.2602,Homeless Paws,NJ,8050
Richboro,US,PA524,40.2167,-75.0049,Royce's Rescue,PA,18954
Doylestown,US,PA604,40.3155,-75.1276,Almost Home Dog Rescue,PA,18901
Whitehall,US,PA47,40.6485,-75.495,Peaceable Kingdom,PA,18052
Churchville,US,PA463,40.1891,-75.0059,Susans Cats and Kittens,PA,18966
Southampton,US,PA765,40.1891,-75.0059,Tails of Love Animal Rescue,PA,18966
Southampton,US,PA872,40.1891,-75.0059,Bella-Reed Pit Bull Rescue,PA,18966
Spencer,US,NY1241,42.2468,-76.477,"Second Chance Thoroughbreds, Inc.",NY,14883
Allentown,US,PA31,40.5885,-75.4674,Lehigh County Humane Society,PA,18103
Allentown,US,PA535,40.5885,-75.4674,Itty Bitty Kitty,PA,18103
Allentown,US,PA1016,40.5885,-75.4674,Hair of the Dog Rescue Inc,PA,18103
Feasterville,US,PA562,40.1554,-74.9876,Wags Rescue and Referral,PA,19053
Feasterville,US,PA608,40.1554,-74.9876,Wet Nose Rescue,PA,19053
Trevose,US,PA695,40.1554,-74.9876,CATS Bridge to Rescue,PA,19053
Feasterville,US,PA1012,40.1554,-74.9876,Jax's Labrador Retriever Rescue,PA,19053
Perkasie,US,PA766,40.3795,-75.2569,Harley's Haven,PA,18944
Perkasie,US,PA994,40.3795,-75.2569,LuvFarm Rescue,PA,18944
Perkasie,US,PA1044,40.3795,-75.2569,Small Paws and Playful Claws Animal Rescue,PA,18944
Bensalem,US,PA869,40.1127,-74.9389,Rescue Purrfect,PA,19020
Bensalem,US,PA874,40.1127,-74.9389,Paws to Heart Rescue Inc.,PA,19020
Bensalem,US,PA938,40.1127,-74.9389,Loving Spirit Hamster Rescue Inc,PA,19020
Bensalem,US,PA971,40.1127,-74.9389,Lucky You! Animal Rescue,PA,19020
Jim Thorpe,US,PA169,40.8756,-75.7417,Carbon County Friends of Animals,PA,18229
Coopersburg,US,PA939,40.5118,-75.4141,Logan's Heroes Animal Rescue Inc.,PA,18036
Mount Holly,US,NJ148,39.9933,-74.7965,Burlington County Animal Shelter,NJ,8060
Mount Holly,US,NJ819,39.9933,-74.7965,Diamond Dogs Rescue,NJ,8060
Quakertown,US,PA105,40.4479,-75.353,Last Chance Ranch Animal Rescue,PA,18951
Quakertown,US,PA988,40.4479,-75.353,Bucks County SPCA - Upper Bucks Shelter,PA,18951
Quakertown,US,PA1028,40.4479,-75.353,"K911 Lost Dog Search, Inc",PA,18951
Warminster,US,PA531,40.2065,-75.0872,Cat Tales Inc,PA,18974
Warminster,US,PA544,40.2065,-75.0872,"Animal Friends Furever,Inc.",PA,18974
Warrington,US,PA06,40.2443,-75.1352,Brookline Labrador Rescue,PA,18976
Allentown,US,PA177,40.6039,-75.5269,Linda Anns Greyhound Rescue Inc.,PA,18104
Allentown,US,PA288,40.6039,-75.5269,SPICER Special Pets In Caring Environments Rescue,PA,18104
Allentown,US,PA347,40.6039,-75.5269,Ratbone Rescues - Northeast Region,PA,18104
Schnecksville,US,PA718,40.6703,-75.6052,Starting Over Animal Rescue,PA,18078
Willingboro,US,NJ100,40.0276,-74.8836,Burlington County Animal Alliance,NJ,8046
Chalfont,US,PA776,40.2853,-75.2089,Tiny Miracles Rescue,PA,18914
Huntingdon Valley,US,PA892,40.1299,-75.0611,"Philly Pug & Short Nose Rescue, Inc.",PA,19006
Nesquehoning,US,PA937,40.8597,-75.8105,Pawsitively Purrfect Rescue,PA,18240
Germansville,US,PA127,40.7204,-75.7053,"Forgotten Felines and Fidos, Inc.",PA,18053
Colmar,US,PA16,40.2662,-75.2471,Stray Cat Blues Inc.,PA,18915
Colmar,US,PA919,40.2662,-75.2471,Dog Town Rescue,PA,18915
Riverside,US,NJ631,40.0265,-74.955,ODAT - One Dog at a Time,NJ,8075
Philadelphia,US,PA689,40.0638,-75.0045,Blind Dog Rescue Alliance - PA,PA,19114
Philadelphia,US,PA570,40.0903,-75.0404,Luv-N-Bunns,PA,19115
Trumansburg,US,NY805,42.5157,-76.6761,"Pet the Pet Program, Inc.",NY,14886
Trexlertown,US,PA138,40.5322,-75.5609,The Cat Shack,PA,18062
Souderton,US,PA480,40.3069,-75.3239,Salfid Rescue,PA,18964
Hatfield,US,PA989,40.2787,-75.2935,Furever Yours Rescue,PA,19440
Waverly,US,NY59,42.0093,-76.5377,Stray Haven Humane Society and S.P.C.A. Inc.,NY,14892
Towanda,US,PA359,41.7712,-76.4461,Happy Tails No-Kill Animal Shelter Inc,PA,18848
Fogelsville,US,PA755,40.5995,-75.6399,The Sanctuary at Haafsville,PA,18051
North Wales,US,PA670,40.2207,-75.2531,Home At Last Dog Rescue,PA,19454
North Wales,US,PA887,40.2207,-75.2531,Hemlock Edge Rescue,PA,19454
Jenkintown,US,PA586,40.1021,-75.1121,"Forgotten Cats, Inc. PA",PA,19046
Jenkintown,US,PA1002,40.1021,-75.1121,Pooch Kaboose Inc,PA,19046
Dresher,US,PA810,40.1429,-75.163,ARF-Aruba Inc.,PA,19025
Mount Laurel,US,NJ312,39.9487,-74.9148,Animal Sanctuary Society Inc.,NJ,8054
Mount Laurel,US,NJ707,39.9487,-74.9148,Randall's Rescue,NJ,8054
Mount Laurel,US,NJ780,39.9487,-74.9148,One Love Animal Rescue LLC,NJ,8054
Tuckerton,US,NJ837,39.5853,-74.3602,Mama's-gona Rescue,NJ,8087
Little Egg Harbor Twp,US,NJ903,39.5853,-74.3602,Kimmy's Safe Haven Rescue ,NJ,8087
Philadelphia,US,PA283,40.0732,-75.087,Northeast Animal Rescue,PA,19111
Philadelphia,US,PA977,40.0732,-75.087,Whiskers of Love Cat Rescue and Sanctuary,PA,19111
Medford,US,NJ634,39.8686,-74.8128,4 Paws With A Cause Rescue,NJ,8055
Medford,US,NJ673,39.8686,-74.8128,Joe Joe's Place Animal Sanctuary,NJ,8055
Ulster,US,PA19,41.8454,-76.5036,Bradford County Humane Society,PA,18850
Moorestown,US,NJ858,39.9673,-74.9549,Angels Helping Animals,NJ,8057
Moorestown,US,NJ898,39.9673,-74.9549,MatchDog Rescue,NJ,8057
Cinnaminson,US,NJ203,39.9947,-74.9921,Delaware Valley Bichon Rescue,NJ,8077
Riverton,US,NJ799,39.9947,-74.9921,The Cat's Meow Rescue Group,NJ,8077
Cinnaminson,US,NJ835,39.9947,-74.9921,Tiny Paws Rescue Inc,NJ,8077
Seneca Falls,US,NY1044,42.9011,-76.7934,Fetch A Friend Rescue,NY,13148
Palmyra,US,NJ830,40.0039,-75.0203,Community Pet Care,NJ,8065
Philadelphia,US,PA853,40.0362,-75.0713,Philly Rat Rescue/SFRS,PA,19149
Hatfield,US,PA28,40.1127,-75.1867,Save A Shepherd Rescue Alliance,PA,19075
Maple Shade,US,NJ375,39.9523,-74.9944,For Bunny Sake Rabbit Rescue,NJ,8052
Marlton,US,NJ499,39.8907,-74.9107,Puppies and More Rescue Adoption,NJ,8053
Marlton,US,NJ731,39.8907,-74.9107,Lynn's Animal Rescue,NJ,8053
Marlton,US,NJ856,39.8907,-74.9107,Dream Home Rescue,NJ,8053
Harleysville,US,PA352,40.2664,-75.388,Rockys Friends,PA,19438
Harleysville,US,PA849,40.2664,-75.388,PAWSibilities Animal Rescue,PA,19438
Blue Bell,US,PA878,40.154,-75.273,Mid Atlantic Jack Rescue,PA,19422
Kempton,US,PA452,40.6406,-75.8044,Maranatha Farm's Animal Sanctuary & Treatment Center,PA,19529
Cherry Hill,US,NJ774,39.9317,-75.0197,Camden Companions Animal Rescue,NJ,8002
Philadelphia,US,PA603,40.0572,-75.188,Animal Rescue Network,PA,19119
Pennsauken,US,NJ445,39.9501,-75.0505,Almost Home Animal Shelter,NJ,8109
Waterloo,US,NY54,42.9058,-76.8734,Beverly Animal Shelter,NY,13165
Cherry Hill,US,NJ244,39.9071,-75.0011,Greyhound Friends of New Jersey Inc,NJ,8034
Cherry Hill,US,NJ904,39.9071,-75.0011,Peyton's Place Animal Rescue,NJ,8034
Philadelphia,US,PA190,39.9901,-75.1117,Pennsylvania SPCA,PA,19134
Philadelphia,US,PA990,39.9901,-75.1117,The Greatest Is Love Animal Rescue,PA,19134
Philadelphia,US,PA214,40.0147,-75.1457,"Australian Cattle Dog Rescue Association, Inc.",PA,19140
Philadelphia,US,PA802,40.0147,-75.1457,Animal Care and Control Team of Philadelphia,PA,19140
Cherry Hill,US,NJ793,39.8813,-74.9737,Paw It 4ward,NJ,8003
Cherry Hill,US,NJ870,39.8813,-74.9737,Purely Positive Pets Animal Rescue,NJ,8003
East Smithfield,US,PA687,41.8647,-76.6262,Animal Care Sanctuary,PA,18817
Fort Kent,US,ME102,47.2586,-68.59,"PAWS Animal Welfare Society, Inc.",ME,4743
Mertztown,US,PA447,40.489,-75.7103,PAW-FUR,PA,19539
Voorhees,US,NJ146,39.8488,-74.9652,Animal Welfare Association,NJ,8043
Voorhees,US,NJ533,39.8488,-74.9652,Lilo's Promise Animal Rescue,NJ,8043
Voorhees,US,NJ54,39.8488,-74.9652,Voorhees Animal Orphanage,NJ,8043
Voorhees,US,NJ855,39.8488,-74.9652,Sarama Animal Rescue,NJ,8043
Collingswood,US,NJ892,39.915,-75.062,"Woof Love Animal Rescue, Inc",NJ,8108
Norristown,US,PA186,40.125,-75.3307,Kitty Cottage Adoption Center,PA,19401
Norristown,US,PA731,40.125,-75.3307,Finding Shelter,PA,19401
Philadelphia,US,PA954,40.0406,-75.2354,Brenda's Cat Rescue,PA,19128
Gibbsboro,US,NJ894,39.836,-74.9693,Tribbles Rabbit Rescue,NJ,8026
Philadelphia,US,PA741,39.9647,-75.1481,Saved Me,PA,19123
Atco,US,NJ447,39.7716,-74.8829,Jersey State Feline Fanciers Inc,NJ,8004
Atco,US,NJ794,39.7716,-74.8829,Balanced Buddies Res-Q,NJ,8004
